"id","name","phone","address","mask_adult","mask_child","updated","available","note","custom_note","website","county","town","cunli","service_periods","lon","lat"
"5901012409","家音藥局","02 -37652080","台北市松山區民生東路5段73號",0,62,"2020/03/20 17:22:48","星期一上午看診、星期二上午看診、星期三上午看診、星期四上午看診、星期五上午看診、星期六上午看診、星期日上午看診、星期一下午看診、星期二下午看診、星期三下午看診、星期四下午看診、星期五下午看診、星期六下午看診、星期日下午看診、星期一晚上看診、星期二晚上看診、星期三晚上看診、星期四晚上看診、星期五晚上看診、星期六晚上看診、星期日晚上看診","口罩販售時段 週一~五 16:00起、週六、日18:00起","實名制口罩販售時段
週一~週五 14:00~22:00
週六、週日 18:00~22:00
每日依據配量販售，售完為止","","臺北市","松山區","東榮里","NNNNNNNNNNNNNNNNNNNNN",121.558489,25.058709
"5901012454","敦北藥局","02 -27155691","台北市松山區民生東路4段80巷5號",0,220,"2020/03/20 17:22:48","星期一上午看診、星期二上午看診、星期三上午看診、星期四上午看診、星期五上午看診、星期六上午看診、星期日上午看診、星期一下午看診、星期二下午看診、星期三下午看診、星期四下午看診、星期五下午看診、星期六下午看診、星期日下午看診、星期一晚上看診、星期二晚上看診、星期三晚上看診、星期四晚上看診、星期五晚上看診、星期六晚上看診、星期日晚上看診","-","","","臺北市","松山區","東昌里","NNNNNNNNNNNNNNNNNNNNN",121.553125,25.057129
"5901012490","中美藥局","02 -27627468","台北市松山區富錦街531號",0,694,"2020/03/20 17:22:48","星期一上午看診、星期二上午看診、星期三上午看診、星期四上午看診、星期五上午看診、星期六上午看診、星期日上午看診、星期一下午看診、星期二下午看診、星期三下午看診、星期四下午看診、星期五下午看診、星期六下午看診、星期日下午看診、星期一晚上看診、星期二晚上看診、星期三晚上看診、星期四晚上看診、星期五晚上看診、星期六晚上看診、星期日晚上看診","營業時間如有異動，以藥局公告為準","","","臺北市","松山區","新益里","NNNNNNNNNNNNNNNNNNNNN",121.565481,25.061285
"5901012507","康麗藥局","02 -27174117","台北市松山區南京東路3段303巷20號",0,2,"2020/03/20 17:22:48","星期一上午看診、星期二上午看診、星期三上午看診、星期四上午看診、星期五上午看診、星期六上午看診、星期日上午休診、星期一下午看診、星期二下午看診、星期三下午看診、星期四下午看診、星期五下午看診、星期六下午看診、星期日下午休診、星期一晚上看診、星期二晚上看診、星期三晚上看診、星期四晚上看診、星期五晚上看診、星期六晚上看診、星期日晚上休診","春節營業時間請電洽","","","臺北市","松山區","中正里","NNNNNNYNNNNNNYNNNNNNY",121.546826,25.05369
"5901012516","惠登藥局","02 -25472432","台北市松山區民生東路3段130巷34號",0,1048,"2020/03/20 17:22:48","星期一上午看診、星期二上午看診、星期三上午看診、星期四上午看診、星期五上午看診、星期六上午看診、星期日上午看診、星期一下午看診、星期二下午看診、星期三下午看診、星期四下午看診、星期五下午看診、星期六下午看診、星期日下午看診、星期一晚上看診、星期二晚上看診、星期三晚上看診、星期四晚上看診、星期五晚上看診、星期六晚上看診、星期日晚上看診","-","","","臺北市","松山區","松基里","NNNNNNNNNNNNNNNNNNNNN",121.546113,25.056198
"5901012561","松田藥局","02 -25798005","台北市松山區延吉街9－6號",0,1000,"2020/03/20 17:22:48","星期一上午看診、星期二上午看診、星期三上午看診、星期四上午看診、星期五上午看診、星期六上午看診、星期日上午休診、星期一下午看診、星期二下午看診、星期三下午看診、星期四下午看診、星期五下午看診、星期六下午看診、星期日下午休診、星期一晚上看診、星期二晚上看診、星期三晚上看診、星期四晚上看診、星期五晚上看診、星期六晚上休診、星期日晚上休診","每日上午9:40開始實名制口罩販售","","","臺北市","松山區","吉仁里","NNNNNNNNNNNNYYNNNNNYY",121.55355,25.047007
"5901012570","予志藥局","02 -27623522","台北市松山區富錦街521號",2,241,"2020/03/20 17:22:48","星期一上午看診、星期二上午看診、星期三上午看診、星期四上午看診、星期五上午看診、星期六上午看診、星期日上午看診、星期一下午看診、星期二下午看診、星期三下午看診、星期四下午看診、星期五下午看診、星期六下午看診、星期日下午看診、星期一晚上看診、星期二晚上看診、星期三晚上看診、星期四晚上看診、星期五晚上看診、星期六晚上看診、星期日晚上休診","-","","","臺北市","松山區","富錦里","NNNNNNNNNNNNNNNNNNNNY",121.564944,25.061186
"5901012598","婕登藥局","02 -27482893","台北市松山區八德路4段699號",0,120,"2020/03/20 17:22:48","星期一上午看診、星期二上午看診、星期三上午看診、星期四上午看診、星期五上午看診、星期六上午看診、星期日上午休診、星期一下午看診、星期二下午看診、星期三下午看診、星期四下午看診、星期五下午看診、星期六下午看診、星期日下午休診、星期一晚上看診、星期二晚上看診、星期三晚上看診、星期四晚上看診、星期五晚上看診、星期六晚上看診、星期日晚上看診","-","","","臺北市","松山區","慈祐里","NNNNNNYNNNNNNYNNNNNNN",121.576644,25.050207
"5901012632","晨安藥局","02 -25798460","台北市松山區八德路3段155巷20弄2號",0,1070,"2020/03/20 17:22:48","星期一上午看診、星期二上午看診、星期三上午看診、星期四上午看診、星期五上午看診、星期六上午看診、星期日上午看診、星期一下午看診、星期二下午看診、星期三下午看診、星期四下午看診、星期五下午看診、星期六下午看診、星期日下午看診、星期一晚上看診、星期二晚上看診、星期三晚上看診、星期四晚上看診、星期五晚上看診、星期六晚上休診、星期日晚上休診","3/7起，星期六停止販賣口罩；星期一至星期五，15:00~17:00、星期日12:00~14:00，直行販售口罩業務。","","","臺北市","松山區","復勢里","NNNNNYNNNNNNYNNNNNNYY",121.555326,25.049137
"5901012650","銘德藥局","02 -27511833","台北市松山區八德路2段366巷28號",3,1015,"2020/03/20 17:22:48","星期一上午看診、星期二上午看診、星期三上午看診、星期四上午看診、星期五上午看診、星期六上午看診、星期日上午看診、星期一下午看診、星期二下午看診、星期三下午看診、星期四下午看診、星期五下午看診、星期六下午看診、星期日下午看診、星期一晚上看診、星期二晚上看診、星期三晚上看診、星期四晚上看診、星期五晚上看診、星期六晚上看診、星期日晚上看診","成人口罩，星期一至六下午2:20發號碼牌，2:30販賣，兒童口罩於營業時間販售，星期日另行公告","","","臺北市","松山區","中崙里","NNNNNNNNNNNNNNNNNNNNN",121.545925,25.047242
"5901012669","政昇藥局","02 -27560286","台北市松山區南京東路5段356號13樓",21,2711,"2020/03/20 17:22:48","星期一上午看診、星期二上午看診、星期三上午看診、星期四上午看診、星期五上午看診、星期六上午休診、星期日上午休診、星期一下午看診、星期二下午看診、星期三下午看診、星期四下午看診、星期五下午看診、星期六下午休診、星期日下午休診、星期一晚上看診、星期二晚上看診、星期三晚上看診、星期四晚上看診、星期五晚上看診、星期六晚上休診、星期日晚上休診","口罩販售時段:週一至五14-16點(14點開始發號碼牌)   ★週六週日未營業   ★228連假休息","","","臺北市","松山區","新聚里","NNNNNYYNNNNNYYNNNNNYY",121.569691,25.051063
"5901012712","立康大藥局","02 -27471749","台北市松山區八德路四段2－1號",0,638,"2020/03/20 17:22:48","星期一上午看診、星期二上午看診、星期三上午看診、星期四上午看診、星期五上午看診、星期六上午看診、星期日上午看診、星期一下午看診、星期二下午看診、星期三下午看診、星期四下午看診、星期五下午看診、星期六下午看診、星期日下午看診、星期一晚上看診、星期二晚上看診、星期三晚上看診、星期四晚上看診、星期五晚上看診、星期六晚上看診、星期日晚上看診","發口罩周一到週五9:30-12:00","","","臺北市","松山區","復盛里","NNNNNNNNNNNNNNNNNNNNN",121.558111,25.048117
"5901012749","躍獅松和藥局","02 -27492569","台北市松山區八德路四段666－1號",90,2116,"2020/03/20 17:22:48","星期一上午休診、星期二上午休診、星期三上午休診、星期四上午休診、星期五上午休診、星期六上午休診、星期日上午休診、星期一下午看診、星期二下午看診、星期三下午看診、星期四下午看診、星期五下午看診、星期六下午看診、星期日下午看診、星期一晚上看診、星期二晚上看診、星期三晚上看診、星期四晚上看診、星期五晚上看診、星期六晚上看診、星期日晚上看診","口罩下午1530~1730.售完為止","","","臺北市","松山區","慈祐里","YYYYYYYNNNNNNNNNNNNNN",121.576092,25.04979
"5901012758","京東藥局","02 -27679503","台北市松山區南京東路五段272號",0,677,"2020/03/20 17:22:48","星期一上午看診、星期二上午看診、星期三上午看診、星期四上午看診、星期五上午看診、星期六上午看診、星期日上午看診、星期一下午看診、星期二下午看診、星期三下午看診、星期四下午看診、星期五下午看診、星期六下午看診、星期日下午看診、星期一晚上看診、星期二晚上看診、星期三晚上看診、星期四晚上看診、星期五晚上看診、星期六晚上看診、星期日晚上看診","下午15:30開始販賣口罩","","","臺北市","松山區","新聚里","NNNNNNNNNNNNNNNNNNNNN",121.566945,25.05114
"5901012767","晨新藥局","02 -27422951","台北市松山區八德路4段91巷1－1號",0,722,"2020/03/20 17:22:48","星期一上午看診、星期二上午看診、星期三上午看診、星期四上午看診、星期五上午看診、星期六上午休診、星期日上午休診、星期一下午看診、星期二下午看診、星期三下午看診、星期四下午看診、星期五下午看診、星期六下午看診、星期日下午看診、星期一晚上看診、星期二晚上看診、星期三晚上看診、星期四晚上看診、星期五晚上看診、星期六晚上看診、星期日晚上看診","週一~週五：16:00~18:00發放。;週日：12:00~14:00發放。","","","臺北市","松山區","吉祥里","NNNNNYYNNNNNYNNNNNNYN",121.560761,25.048944
"5901012918","躍獅京華藥局","02 -27666508","台北市松山區南京東路5段71號",0,96,"2020/03/20 17:22:48","星期一上午看診、星期二上午看診、星期三上午看診、星期四上午看診、星期五上午看診、星期六上午看診、星期日上午看診、星期一下午看診、星期二下午看診、星期三下午看診、星期四下午看診、星期五下午看診、星期六下午看診、星期日下午看診、星期一晚上看診、星期二晚上看診、星期三晚上看診、星期四晚上看診、星期五晚上看診、星期六晚上看診、星期日晚上看診","口罩販售時段：下午1點至售完為止","每日下午一點開始販售","","臺北市","松山區","東光里","NNNNNNNNNNNNNNNNNNNNN",121.559562,25.051715
"5901012963","綠之家藥局","02 -25289595","台北市松山區延壽街428號",13,174,"2020/03/20 17:22:48","星期一上午看診、星期二上午看診、星期三上午看診、星期四上午看診、星期五上午看診、星期六上午看診、星期日上午休診、星期一下午看診、星期二下午看診、星期三下午看診、星期四下午看診、星期五下午看診、星期六下午看診、星期日下午看診、星期一晚上看診、星期二晚上看診、星期三晚上看診、星期四晚上看診、星期五晚上看診、星期六晚上看診、星期日晚上看診","-","","","臺北市","松山區","龍田里","NNNNNNYNNNNNNNNNNNNNN",121.556217,25.056197
"5901013004","德安藥局","02 -25782670","台北市松山區八德路3段195號2樓",1,2564,"2020/03/20 17:22:48","星期一上午看診、星期二上午看診、星期三上午看診、星期四上午看診、星期五上午看診、星期六上午看診、星期日上午休診、星期一下午看診、星期二下午看診、星期三下午看診、星期四下午看診、星期五下午看診、星期六下午看診、星期日下午休診、星期一晚上看診、星期二晚上看診、星期三晚上看診、星期四晚上看診、星期五晚上看診、星期六晚上休診、星期日晚上休診","-","","","臺北市","松山區","復勢里","NNNNNNYNNNNNNYNNNNNYY",121.55619,25.048163
"5901150280","慈航藥局","02 -28815988","台北市士林區文林路441號",0,54,"2020/03/20 17:22:48","星期一上午看診、星期二上午看診、星期三上午看診、星期四上午看診、星期五上午看診、星期六上午看診、星期日上午看診、星期一下午看診、星期二下午看診、星期三下午看診、星期四下午看診、星期五下午看診、星期六下午看診、星期日下午看診、星期一晚上看診、星期二晚上看診、星期三晚上看診、星期四晚上看診、星期五晚上看診、星期六晚上看診、星期日晚上看診","口罩販賣時間為早上0830起領取號碼牌並現場排隊購買至早上0930。96年次以下孩童口罩不限時間領取。請自備零錢","口罩販賣時間早上0830起領取號碼牌於現場排隊購買至早上0930。早場未販售完之口罩於晚間2030-2130販售。13歲以下兒童口罩於營業時間皆販售。","","臺北市","士林區","福德里","NNNNNNNNNNNNNNNNNNNNN",121.524569,25.094807
"5901150342","士林三安藥局","02 -28812631","台北市士林區大南路11號",0,2240,"2020/03/20 17:22:48","星期一上午看診、星期二上午看診、星期三上午看診、星期四上午看診、星期五上午看診、星期六上午看診、星期日上午看診、星期一下午看診、星期二下午看診、星期三下午看診、星期四下午看診、星期五下午看診、星期六下午看診、星期日下午看診、星期一晚上看診、星期二晚上看診、星期三晚上看診、星期四晚上看診、星期五晚上看診、星期六晚上看診、星期日晚上看診","-","","","臺北市","士林區","仁勇里","NNNNNNNNNNNNNNNNNNNNY",121.526009,25.088981
"5901150351","啟宏藥局","02 -28825811","台北市士林區大東路90－1號1樓",0,793,"2020/03/20 17:22:48","星期一上午看診、星期二上午看診、星期三上午看診、星期四上午看診、星期五上午看診、星期六上午休診、星期日上午休診、星期一下午看診、星期二下午看診、星期三下午看診、星期四下午看診、星期五下午看診、星期六下午休診、星期日下午休診、星期一晚上看診、星期二晚上看診、星期三晚上看診、星期四晚上看診、星期五晚上看診、星期六晚上休診、星期日晚上休診","防疫口罩販售時間:週一至週五早上9:00開賣.週六.週日及國定假日休息","","","臺北市","士林區","仁勇里","NNNNNYYNNNNNYYNNNNNYY",121.525628,25.091459
"5901150397","博惠藥局","02 -28320379","台北巿士林區華榮街16號",309,3267,"2020/03/20 17:22:48","星期一上午看診、星期二上午看診、星期三上午看診、星期四上午看診、星期五上午看診、星期六上午看診、星期日上午看診、星期一下午看診、星期二下午看診、星期三下午看診、星期四下午看診、星期五下午看診、星期六下午看診、星期日下午看診、星期一晚上看診、星期二晚上看診、星期三晚上看診、星期四晚上看診、星期五晚上看診、星期六晚上看診、星期日晚上休診","口罩代售 ，週一至五，17:00起，周六周日16:00起 ， 現場排隊 ， 不預發號碼牌","","","","","","NNNNNNNNNNNNNNNNNNNNY",121.5236009,25.0955096
"5901150459","有德堂大藥局","02 -28318387","台北市士林區中山北路6段227號",480,2479,"2020/03/20 17:22:48","星期一上午看診、星期二上午看診、星期三上午看診、星期四上午看診、星期五上午看診、星期六上午看診、星期日上午休診、星期一下午看診、星期二下午看診、星期三下午看診、星期四下午看診、星期五下午看診、星期六下午看診、星期日下午休診、星期一晚上看診、星期二晚上看診、星期三晚上看診、星期四晚上看診、星期五晚上看診、星期六晚上看診、星期日晚上休診","-","","","臺北市","士林區","蘭興里","NNNNNNYNNNNNNYNNNNNNY",121.525115,25.108884
"5901150468","太安藥局","02 -28111468","台北市士林區延平北路5段157號",0,1625,"2020/03/20 17:22:48","星期一上午看診、星期二上午看診、星期三上午看診、星期四上午看診、星期五上午看診、星期六上午看診、星期日上午看診、星期一下午看診、星期二下午看診、星期三下午看診、星期四下午看診、星期五下午看診、星期六下午看診、星期日下午看診、星期一晚上看診、星期二晚上看診、星期三晚上看診、星期四晚上看診、星期五晚上看診、星期六晚上看診、星期日晚上看診","口罩代售時間自8:30-13:30 號碼牌發放時間自8:15 現場排隊等候","","","臺北市","士林區","富光里","NNNNNNNNNNNNNNNNNNNNN",121.51013,25.082512
"5901150511","三原藥局","02 -28111888","台北市士林區延平北路5段293號",114,675,"2020/03/20 17:22:48","星期一上午看診、星期二上午看診、星期三上午看診、星期四上午看診、星期五上午看診、星期六上午看診、星期日上午休診、星期一下午休診、星期二下午休診、星期三下午休診、星期四下午休診、星期五下午休診、星期六下午休診、星期日下午休診、星期一晚上看診、星期二晚上看診、星期三晚上看診、星期四晚上看診、星期五晚上看診、星期六晚上休診、星期日晚上休診","口罩販賣 星期一到五0900-1200 1700-2200 星期六0900-1200 星期日公休 以現場販售為主","","","臺北市","士林區","葫蘆里","NNNNNNYYYYYYYYNNNNNYY",121.509407,25.085899
"5901150548","田倉藥局","02 -88662188","台北市士林區士東路124號",0,777,"2020/03/20 17:22:48","星期一上午看診、星期二上午看診、星期三上午看診、星期四上午看診、星期五上午看診、星期六上午看診、星期日上午看診、星期一下午看診、星期二下午看診、星期三下午看診、星期四下午看診、星期五下午看診、星期六下午看診、星期日下午看診、星期一晚上看診、星期二晚上看診、星期三晚上看診、星期四晚上看診、星期五晚上看診、星期六晚上看診、星期日晚上看診","-","防疫口罩代售時間：每日下午3點開始，不預發號碼牌，現場排隊，售完為止","","臺北市","士林區","三玉里","NNNNNNNNNNNNNNNNNNNNN",121.530158,25.112193
"5901150575","日康藥局","02 -28358558","台北市士林區士東路12號1樓",0,818,"2020/03/20 17:22:48","星期一上午看診、星期二上午看診、星期三上午看診、星期四上午看診、星期五上午看診、星期六上午看診、星期日上午休診、星期一下午看診、星期二下午看診、星期三下午看診、星期四下午看診、星期五下午看診、星期六下午休診、星期日下午休診、星期一晚上看診、星期二晚上看診、星期三晚上看診、星期四晚上看診、星期五晚上看診、星期六晚上休診、星期日晚上休診","-","","","臺北市","士林區","蘭雅里","NNNNNNYNNNNNYYNNNNNYY",121.526737,25.111678
"5901150593","安寧藥局","02 -28803319","台北市士林區劍潭路91號",0,880,"2020/03/20 17:22:48","星期一上午看診、星期二上午看診、星期三上午看診、星期四上午看診、星期五上午看診、星期六上午休診、星期日上午休診、星期一下午看診、星期二下午看診、星期三下午看診、星期四下午看診、星期五下午看診、星期六下午休診、星期日下午休診、星期一晚上看診、星期二晚上看診、星期三晚上看診、星期四晚上看診、星期五晚上看診、星期六晚上休診、星期日晚上休診","領藥時間為週一至週五9:00~12:00及16:00~20:00；週六9:00~12:00","","","臺北市","士林區","百齡里","NNNNNYYNNNNNYYNNNNNYY",121.519909,25.082846
"5901101161","晏晟藥局","02 -25851445","台北市中山區林森北路625號",0,404,"2020/03/20 17:22:48","星期一上午看診、星期二上午看診、星期三上午看診、星期四上午看診、星期五上午看診、星期六上午看診、星期日上午休診、星期一下午看診、星期二下午看診、星期三下午看診、星期四下午看診、星期五下午看診、星期六下午看診、星期日下午休診、星期一晚上看診、星期二晚上看診、星期三晚上看診、星期四晚上看診、星期五晚上看診、星期六晚上看診、星期日晚上休診","實名制口罩發送時間早上9點開始發號碼牌","","","臺北市","中山區","圓山里","NNNNNNYNNNNNNYNNNNNNY",121.525859,25.067034
"5901101205","大直藥局","02 -25320522","台北市中山區北安路617號1樓",0,0,"","星期一上午看診、星期二上午看診、星期三上午看診、星期四上午看診、星期五上午看診、星期六上午看診、星期日上午看診、星期一下午看診、星期二下午看診、星期三下午看診、星期四下午看診、星期五下午看診、星期六下午看診、星期日下午看診、星期一晚上看診、星期二晚上看診、星期三晚上看診、星期四晚上看診、星期五晚上看診、星期六晚上看診、星期日晚上看診","防疫口罩早上9點開始販售，營業時間am9~pm11，春節白天照常營業","防疫口罩早上9點開始販售","","臺北市","中山區","大直里","NNNNNNNNNNNNNNNNNNNNN",121.548838,25.082728
"5901101250","美日藥局","02 -25631662","台北市中山區天津街66號1樓",0,1347,"2020/03/20 17:22:48","星期一上午看診、星期二上午看診、星期三上午看診、星期四上午看診、星期五上午看診、星期六上午看診、星期日上午看診、星期一下午看診、星期二下午看診、星期三下午看診、星期四下午看診、星期五下午看診、星期六下午看診、星期日下午看診、星期一晚上看診、星期二晚上看診、星期三晚上看診、星期四晚上看診、星期五晚上看診、星期六晚上看診、星期日晚上看診","購口罩時間從3/23日起改成下午5:30開始販售不再另發號碼牌!另3月22日公休!","發號碼牌，跟網站資訊不會同步","","臺北市","中山區","正得里","NNNNNNYNNNNNNNNNNNNNN",121.523274,25.051364
"5901101321","文德藥局","02 -25181178","台北市中山區龍江路356巷19號1樓",0,1832,"2020/03/20 17:22:48","星期一上午看診、星期二上午看診、星期三上午看診、星期四上午看診、星期五上午看診、星期六上午休診、星期日上午休診、星期一下午看診、星期二下午看診、星期三下午看診、星期四下午看診、星期五下午看診、星期六下午看診、星期日下午休診、星期一晚上看診、星期二晚上看診、星期三晚上看診、星期四晚上看診、星期五晚上看診、星期六晚上看診、星期日晚上看診","-","","","臺北市","中山區","行仁里","YYYYYYYYYYYYYYNNNNNNN",121.540088,25.066075
"5901101509","永直藥局","02 -85098059","台北市中山區北安路595巷2弄6號",0,745,"2020/03/20 17:22:48","星期一上午看診、星期二上午看診、星期三上午看診、星期四上午看診、星期五上午看診、星期六上午看診、星期日上午看診、星期一下午看診、星期二下午看診、星期三下午看診、星期四下午看診、星期五下午看診、星期六下午看診、星期日下午看診、星期一晚上看診、星期二晚上看診、星期三晚上看診、星期四晚上看診、星期五晚上看診、星期六晚上看診、星期日晚上看診","每日早上8點領號碼牌，9點開放購買，12點逾時不候。","","","臺北市","中山區","大直里","NNNNNNNYYYYYYYYYYYYYY",121.548295,25.081926
"5901101536","展佑藥局","02 -25232803","台北市中山區長春路146－1號",0,0,"","星期一上午看診、星期二上午看診、星期三上午看診、星期四上午看診、星期五上午看診、星期六上午看診、星期日上午休診、星期一下午看診、星期二下午看診、星期三下午看診、星期四下午看診、星期五下午看診、星期六下午看診、星期日下午休診、星期一晚上看診、星期二晚上看診、星期三晚上看診、星期四晚上看診、星期五晚上看診、星期六晚上看診、星期日晚上休診","下午2點直接現場販售口罩，不發號碼牌，週日公休無販售口罩.","","","臺北市","中山區","中吉里","NNNNNNYNNNNNNYNNNNNNY",121.531711,25.054728
"5901101607","蓁榛健康生活藥局","02 -25099333","台北市中山區合江街100－2號1樓",0,593,"2020/03/20 17:22:48","星期一上午看診、星期二上午看診、星期三上午看診、星期四上午看診、星期五上午看診、星期六上午看診、星期日上午休診、星期一下午看診、星期二下午看診、星期三下午看診、星期四下午看診、星期五下午看診、星期六下午看診、星期日下午休診、星期一晚上看診、星期二晚上看診、星期三晚上看診、星期四晚上看診、星期五晚上看診、星期六晚上看診、星期日晚上休診","防疫口罩銷售時間為下午兩點至售完為止","","","臺北市","中山區","江山里","NNNNNNYNNNNNNYNNNNNNY",121.53911,25.058454
"5901101625","中崙藥局","02 -27114971","台北市中山區八德路2段307號",0,706,"2020/03/20 17:22:48","星期一上午看診、星期二上午看診、星期三上午看診、星期四上午看診、星期五上午看診、星期六上午看診、星期日上午休診、星期一下午看診、星期二下午看診、星期三下午看診、星期四下午看診、星期五下午看診、星期六下午看診、星期日下午休診、星期一晚上看診、星期二晚上看診、星期三晚上看診、星期四晚上看診、星期五晚上看診、星期六晚上看診、星期日晚上休診","-","","","臺北市","中山區","朱崙里","NNNNNNYNNNNNNYNNNNNNY",121.542608,25.047362
"5901101652","祥泰藥局","02 -25313097","台北市中山區林森北路136號",0,2229,"2020/03/20 17:22:48","星期一上午休診、星期二上午休診、星期三上午休診、星期四上午休診、星期五上午休診、星期六上午休診、星期日上午休診、星期一下午看診、星期二下午看診、星期三下午看診、星期四下午看診、星期五下午看診、星期六下午看診、星期日下午休診、星期一晚上看診、星期二晚上看診、星期三晚上看診、星期四晚上看診、星期五晚上看診、星期六晚上看診、星期日晚上休診","星期一至星期五中午1點開始現場排隊購買口罩.星期六下午3點開始現場排隊買口罩.","","","臺北市","中山區","正得里","YYYYYYYNNNNNNYNNNNNNY",121.525087,25.051419
"5901011699","建東大藥局","02 -27676237","台北市松山區三民路97號1樓",6,1623,"2020/03/20 17:22:48","星期一上午看診、星期二上午看診、星期三上午看診、星期四上午看診、星期五上午看診、星期六上午看診、星期日上午休診、星期一下午看診、星期二下午看診、星期三下午看診、星期四下午看診、星期五下午看診、星期六下午看診、星期日下午休診、星期一晚上看診、星期二晚上看診、星期三晚上看診、星期四晚上看診、星期五晚上看診、星期六晚上看診、星期日晚上休診","-","","","臺北市","松山區","三民里","NNNNNNYNNNNNNYNNNNNNY",121.563398,25.057235
"5901011733","和諧藥局","02 -27568580","台北市松山區民生東路5段148號2樓",6,2965,"2020/03/20 17:22:48","星期一上午看診、星期二上午看診、星期三上午看診、星期四上午看診、星期五上午看診、星期六上午看診、星期日上午休診、星期一下午休診、星期二下午休診、星期三下午休診、星期四下午休診、星期五下午休診、星期六下午休診、星期日下午休診、星期一晚上看診、星期二晚上看診、星期三晚上看診、星期四晚上看診、星期五晚上看診、星期六晚上看診、星期日晚上休診","-","","","臺北市","松山區","三民里","NNNNNNYYYYYYYYNNNNNNY",121.562151,25.058494
"5901011751","德恩藥師藥局","02 -27782829","台北市松山區八德路2段378號1樓",0,20,"2020/03/20 17:22:48","星期一上午看診、星期二上午看診、星期三上午看診、星期四上午看診、星期五上午看診、星期六上午休診、星期日上午休診、星期一下午看診、星期二下午看診、星期三下午看診、星期四下午看診、星期五下午看診、星期六下午看診、星期日下午看診、星期一晚上看診、星期二晚上看診、星期三晚上看診、星期四晚上看診、星期五晚上看診、星期六晚上看診、星期日晚上看診","星期六公休   /口罩周一~周五9：30發號碼牌/假日12:00發號碼牌-->下午3點才能領口罩!!","","","臺北市","松山區","中崙里","NNNNNYYNNNNNYNNNNNNYN",121.546142,25.047971
"5901011760","延壽藥局","02 -27685159","台北市松山區延壽街327號",0,2029,"2020/03/20 17:22:48","星期一上午看診、星期二上午看診、星期三上午看診、星期四上午看診、星期五上午看診、星期六上午看診、星期日上午休診、星期一下午看診、星期二下午看診、星期三下午看診、星期四下午看診、星期五下午看診、星期六下午休診、星期日下午休診、星期一晚上休診、星期二晚上休診、星期三晚上休診、星期四晚上休診、星期五晚上休診、星期六晚上休診、星期日晚上休診","-","","","臺北市","松山區","介壽里","NNNNNNYNNNNNYYYYYYYYY",121.560363,25.056786
"5901011975","萬泰藥局","02 -27135891","台北市松山區敦化北路222巷38號",0,276,"2020/03/20 17:22:48","星期一上午看診、星期二上午看診、星期三上午看診、星期四上午看診、星期五上午看診、星期六上午看診、星期日上午看診、星期一下午看診、星期二下午看診、星期三下午看診、星期四下午看診、星期五下午看診、星期六下午看診、星期日下午看診、星期一晚上看診、星期二晚上看診、星期三晚上看診、星期四晚上看診、星期五晚上看診、星期六晚上看診、星期日晚上看診","-","","","臺北市","松山區","民有里","NNNNNNYNNNNNNYNNNNNNY",121.547103,25.059943
"5901012203","博荃藥局","02 -27316736","台北市松山區敦化北路4巷51號",0,424,"2020/03/20 17:22:48","星期一上午看診、星期二上午看診、星期三上午看診、星期四上午看診、星期五上午看診、星期六上午看診、星期日上午休診、星期一下午看診、星期二下午看診、星期三下午看診、星期四下午看診、星期五下午看診、星期六下午看診、星期日下午休診、星期一晚上看診、星期二晚上看診、星期三晚上看診、星期四晚上看診、星期五晚上看診、星期六晚上看診、星期日晚上休診","口罩下午3點發卡片，憑卡片，健保卡開始購買 ! 星期日，連續假期公休","","","臺北市","松山區","中正里","NNNNNNYNNNNNNYNNNNNNY",121.544742,25.050063
"5901012383","德川中西藥局","02 -27683399","台北市松山區八德路4段96號",327,3680,"2020/03/20 17:22:48","星期一上午看診、星期二上午看診、星期三上午看診、星期四上午看診、星期五上午看診、星期六上午休診、星期日上午休診、星期一下午看診、星期二下午看診、星期三下午看診、星期四下午看診、星期五下午看診、星期六下午休診、星期日下午看診、星期一晚上看診、星期二晚上看診、星期三晚上看診、星期四晚上看診、星期五晚上看診、星期六晚上休診、星期日晚上休診","-","","","臺北市","松山區","復盛里","NNNNNYYNNNNNYNNNNNNYY",121.56066,25.04836
"5901023831","康乃馨藥局","02 -23257097","台北市大安區建國南路1段327號",0,991,"2020/03/20 17:22:48","星期一上午看診、星期二上午看診、星期三上午看診、星期四上午看診、星期五上午看診、星期六上午看診、星期日上午休診、星期一下午看診、星期二下午看診、星期三下午看診、星期四下午看診、星期五下午看診、星期六下午看診、星期日下午休診、星期一晚上看診、星期二晚上看診、星期三晚上看診、星期四晚上看診、星期五晚上看診、星期六晚上看診、星期日晚上休診","週一至週六口罩代售時間自09:00；現場排隊","","","臺北市","大安區","和安里","NNNNNNYNNNNNNYNNNNNNY",121.538211,25.034806
"5901023886","世康藥局","02 -27015758","台北市大安區延吉街246號",0,0,"","星期一上午看診、星期二上午看診、星期三上午看診、星期四上午看診、星期五上午看診、星期六上午看診、星期日上午看診、星期一下午看診、星期二下午看診、星期三下午看診、星期四下午看診、星期五下午看診、星期六下午看診、星期日下午看診、星期一晚上看診、星期二晚上看診、星期三晚上看診、星期四晚上看診、星期五晚上看診、星期六晚上看診、星期日晚上看診","-","","","臺北市","大安區","光信里","NNNNNNNNNNNNNNNNNNNNN",121.555605,25.035492
"5901023902","惠良藥局","02 -27387872","台北市大安區和平東路3段93－1號",0,1332,"2020/03/20 17:22:48","星期一上午看診、星期二上午看診、星期三上午看診、星期四上午看診、星期五上午看診、星期六上午看診、星期日上午休診、星期一下午看診、星期二下午看診、星期三下午看診、星期四下午看診、星期五下午看診、星期六下午看診、星期日下午休診、星期一晚上看診、星期二晚上看診、星期三晚上看診、星期四晚上看診、星期五晚上看診、星期六晚上休診、星期日晚上休診","早上9:30發號碼牌及收健保卡進行過卡紀錄","","","臺北市","大安區","全安里","NNNNNNYNNNNNNYNNNNNYY",121.550727,25.024615
"5901023966","愛維康生活藥局","02 -27059791","台北市大安區四維路170巷21號",0,100,"2020/03/20 17:22:48","星期一上午看診、星期二上午看診、星期三上午看診、星期四上午看診、星期五上午看診、星期六上午看診、星期日上午看診、星期一下午看診、星期二下午看診、星期三下午看診、星期四下午看診、星期五下午看診、星期六下午看診、星期日下午休診、星期一晚上看診、星期二晚上看診、星期三晚上看診、星期四晚上看診、星期五晚上看診、星期六晚上看診、星期日晚上看診","固定周一至周日下午14:00發號碼牌依序發口罩，周日有加開","","","臺北市","大安區","龍雲里","NNNNNNNNNNNNNYNNNNNNN",121.547034,25.028317
"5901024007","古亭健康人生藥局","02 -23660895","台北市大安區羅斯福路2段83號",0,145,"2020/03/20 17:22:48","星期一上午看診、星期二上午看診、星期三上午看診、星期四上午看診、星期五上午看診、星期六上午看診、星期日上午看診、星期一下午看診、星期二下午看診、星期三下午看診、星期四下午看診、星期五下午看診、星期六下午看診、星期日下午看診、星期一晚上看診、星期二晚上看診、星期三晚上看診、星期四晚上看診、星期五晚上看診、星期六晚上看診、星期日晚上看診","9:30-21:55","","","臺北市","大安區","古莊里","NNNNNNNNNNNNNNNNNNNNN",121.523691,25.025723
"5901024098","杏一瑞安藥局","02 -27096710","台北市大安區瑞安街208巷11弄1號",0,975,"2020/03/20 17:22:48","星期一上午看診、星期二上午看診、星期三上午看診、星期四上午看診、星期五上午看診、星期六上午看診、星期日上午看診、星期一下午看診、星期二下午看診、星期三下午看診、星期四下午看診、星期五下午看診、星期六下午看診、星期日下午看診、星期一晚上看診、星期二晚上看診、星期三晚上看診、星期四晚上看診、星期五晚上看診、星期六晚上看診、星期日晚上看診","-","13點發號碼牌,15-17點可領口罩，沒領視同放棄開放給所有民眾","https://www.medfirst.com.tw","臺北市","大安區","龍圖里","NNNNNNNNNNNNNNNNNNNNN",121.540647,25.028661
"5901024114","好安心藥局","02 -23772166","台北市大安區和平東路2段98之2號",0,0,"","星期一上午看診、星期二上午看診、星期三上午看診、星期四上午看診、星期五上午看診、星期六上午看診、星期日上午休診、星期一下午看診、星期二下午看診、星期三下午看診、星期四下午看診、星期五下午看診、星期六下午看診、星期日下午休診、星期一晚上看診、星期二晚上看診、星期三晚上看診、星期四晚上看診、星期五晚上看診、星期六晚上看診、星期日晚上休診","週日不營業","周日目前不營業 星期一~星期六下午一點開賣售完為止","","臺北市","大安區","龍淵里","NNNNNNYNNNNNNYNNNNNNY",121.541503,25.024932
"5901024123","中山樂方藥局","02 -27050622","台北市大安區仁愛路4段112巷12號",0,434,"2020/03/20 17:22:48","星期一上午看診、星期二上午看診、星期三上午看診、星期四上午看診、星期五上午看診、星期六上午看診、星期日上午休診、星期一下午看診、星期二下午看診、星期三下午看診、星期四下午看診、星期五下午看診、星期六下午看診、星期日下午休診、星期一晚上看診、星期二晚上看診、星期三晚上看診、星期四晚上看診、星期五晚上看診、星期六晚上看診、星期日晚上休診","-","","","臺北市","大安區","敦安里","NNNNNNYNNNNNNYNNNNNNY",121.549579,25.036422
"5901024178","天康忠孝藥局","02 -77137763","台北市大安區忠孝東路3段223－1號",0,0,"","星期一上午看診、星期二上午看診、星期三上午看診、星期四上午看診、星期五上午看診、星期六上午看診、星期日上午看診、星期一下午看診、星期二下午看診、星期三下午看診、星期四下午看診、星期五下午看診、星期六下午看診、星期日下午看診、星期一晚上看診、星期二晚上看診、星期三晚上看診、星期四晚上看診、星期五晚上看診、星期六晚上看診、星期日晚上看診","過年期間照常營業","","","臺北市","大安區","昌隆里","NNNNNNNNNNNNNNNNNNNNN",121.540036,25.041856
"5901100440","優豐藥局","02 -25602565","台北市中山區民生東路1段32號",597,402,"2020/03/20 17:22:48","星期一上午看診、星期二上午看診、星期三上午看診、星期四上午看診、星期五上午看診、星期六上午看診、星期日上午休診、星期一下午看診、星期二下午看診、星期三下午看診、星期四下午看診、星期五下午看診、星期六下午看診、星期日下午看診、星期一晚上看診、星期二晚上看診、星期三晚上看診、星期四晚上看診、星期五晚上看診、星期六晚上看診、星期日晚上看診","下午5點30分現場作業不分號碼牌4月4日-- 4月5日公休","","","臺北市","中山區","中山里","NNNNNNYNNNNNNNNNNNNNN",121.524223,25.057935
"5901100495","能康藥局","02 -25429426","台北市中山區長春路46號",0,666,"2020/03/20 17:22:48","星期一上午看診、星期二上午看診、星期三上午看診、星期四上午看診、星期五上午看診、星期六上午休診、星期日上午休診、星期一下午看診、星期二下午看診、星期三下午看診、星期四下午看診、星期五下午看診、星期六下午休診、星期日下午休診、星期一晚上看診、星期二晚上看診、星期三晚上看診、星期四晚上看診、星期五晚上看診、星期六晚上休診、星期日晚上休診","口罩販售時間是每周一至周五上午11:30開賣","","","臺北市","中山區","康樂里","NNNNNYYNNNNNYYNNNNNYY",121.525629,25.054818
"5901100628","貢玄藥局","02 -25637847","台北市中山區錦州街207號",0,1014,"2020/03/20 17:22:48","星期一上午看診、星期二上午看診、星期三上午看診、星期四上午看診、星期五上午看診、星期六上午看診、星期日上午看診、星期一下午看診、星期二下午看診、星期三下午看診、星期四下午看診、星期五下午看診、星期六下午看診、星期日下午看診、星期一晚上看診、星期二晚上看診、星期三晚上看診、星期四晚上看診、星期五晚上看診、星期六晚上看診、星期日晚上看診","早上10點~11點領口罩","","","臺北市","中山區","新生里","NNNNNNNNNNNNNNNNNNNNN",121.531963,25.060394
"5901100664","阿里藥局","02 -25020638","台北市中山區錦州街251號",15,1381,"2020/03/20 17:22:48","星期一上午看診、星期二上午看診、星期三上午看診、星期四上午看診、星期五上午看診、星期六上午看診、星期日上午休診、星期一下午看診、星期二下午看診、星期三下午看診、星期四下午看診、星期五下午看診、星期六下午看診、星期日下午休診、星期一晚上看診、星期二晚上看診、星期三晚上看診、星期四晚上看診、星期五晚上看診、星期六晚上看診、星期日晚上休診","-","","","臺北市","中山區","松江里","NNNNNNYNNNNNNYNNNNNNY",121.534194,25.060393
"5901100717","榮昌藥局","02 -25964593","台北市中山區雙城街17－3號",1,2264,"2020/03/20 17:22:48","星期一上午看診、星期二上午看診、星期三上午看診、星期四上午看診、星期五上午看診、星期六上午看診、星期日上午休診、星期一下午看診、星期二下午看診、星期三下午看診、星期四下午看診、星期五下午看診、星期六下午看診、星期日下午休診、星期一晚上看診、星期二晚上看診、星期三晚上看診、星期四晚上看診、星期五晚上看診、星期六晚上看診、星期日晚上休診","-","","","臺北市","中山區","恆安里","NNNNNNYNNNNNNYNNNNNNY",121.524415,25.064631
"5901100735","華友藥局","02 -25007159","台北市中山區龍江路356巷27號－1",0,3,"2020/03/20 17:22:48","星期一上午看診、星期二上午看診、星期三上午看診、星期四上午看診、星期五上午看診、星期六上午看診、星期日上午看診、星期一下午看診、星期二下午看診、星期三下午看診、星期四下午看診、星期五下午看診、星期六下午看診、星期日下午看診、星期一晚上看診、星期二晚上看診、星期三晚上看診、星期四晚上看診、星期五晚上看診、星期六晚上看診、星期日晚上看診","-","","","臺北市","中山區","行仁里","NNNNNNNNNNNNNNNNNNNNN",121.539862,25.066076
"5901100771","良佑藥局","02 -25916402","台北市中山區撫順街6－2號1樓",0,0,"","星期一上午看診、星期二上午看診、星期三上午看診、星期四上午看診、星期五上午看診、星期六上午看診、星期日上午休診、星期一下午看診、星期二下午看診、星期三下午看診、星期四下午看診、星期五下午看診、星期六下午看診、星期日下午休診、星期一晚上看診、星期二晚上看診、星期三晚上看診、星期四晚上看診、星期五晚上看診、星期六晚上看診、星期日晚上休診","-","","","臺北市","中山區","集英里","NNNNNNYNNNNNNYNNNNNNY",121.521567,25.063669
"5901100799","立大藥局","02 -25313844","台北市中山區吉林路144巷14號",0,1095,"2020/03/20 17:22:48","星期一上午休診、星期二上午休診、星期三上午休診、星期四上午休診、星期五上午休診、星期六上午休診、星期日上午休診、星期一下午看診、星期二下午看診、星期三下午看診、星期四下午看診、星期五下午看診、星期六下午休診、星期日下午休診、星期一晚上看診、星期二晚上看診、星期三晚上看診、星期四晚上看診、星期五晚上看診、星期六晚上休診、星期日晚上休診","-","","","臺北市","中山區","中原里","YYYYYYYNNNNNNNNNNNNNN",121.529578,25.055984
"5901100959","武璋大藥局","02 -25072026","台北市中山區伊通街97號之2",0,13,"2020/03/20 17:22:48","星期一上午看診、星期二上午看診、星期三上午看診、星期四上午看診、星期五上午看診、星期六上午看診、星期日上午休診、星期一下午看診、星期二下午看診、星期三下午看診、星期四下午看診、星期五下午看診、星期六下午看診、星期日下午休診、星期一晚上看診、星期二晚上看診、星期三晚上看診、星期四晚上看診、星期五晚上看診、星期六晚上休診、星期日晚上休診","口罩代售時間：9:00AM ~ 11:00AM；現場排隊。","","","臺北市","中山區","中央里","NNNNNNYNNNNNNYNNNNNYY",121.534894,25.053175
"5901101072","長青藥局","02 -25053160","台北市中山區興安街55號1樓",0,710,"2020/03/20 17:22:48","星期一上午看診、星期二上午看診、星期三上午看診、星期四上午看診、星期五上午看診、星期六上午看診、星期日上午看診、星期一下午看診、星期二下午看診、星期三下午看診、星期四下午看診、星期五下午看診、星期六下午看診、星期日下午看診、星期一晚上看診、星期二晚上看診、星期三晚上看診、星期四晚上看診、星期五晚上看診、星期六晚上看診、星期日晚上看診","-","","","臺北市","中山區","朱馥里","NNNNNNNNNNNNNNNNNNNNN",121.541887,25.056207
"5901112600","匯安藥局","02 -26579255","台北市內湖區內湖路1段703之1號",240,1080,"2020/03/20 17:22:48","星期一上午看診、星期二上午看診、星期三上午看診、星期四上午看診、星期五上午看診、星期六上午休診、星期日上午休診、星期一下午看診、星期二下午看診、星期三下午看診、星期四下午看診、星期五下午看診、星期六下午休診、星期日下午休診、星期一晚上看診、星期二晚上看診、星期三晚上看診、星期四晚上看診、星期五晚上看診、星期六晚上休診、星期日晚上休診","星期一到五下午3:30販售口罩","有號碼牌才可領","","臺北市","內湖區","港富里","NNNNNYYNNNNNYYNNNNNYY",121.57742,25.079637
"5901112682","富康東湖藥局","02 -26323222","台北市內湖區東湖路119巷49弄16號",0,225,"2020/03/20 17:22:48","星期一上午看診、星期二上午看診、星期三上午看診、星期四上午看診、星期五上午看診、星期六上午看診、星期日上午看診、星期一下午看診、星期二下午看診、星期三下午看診、星期四下午看診、星期五下午看診、星期六下午看診、星期日下午看診、星期一晚上看診、星期二晚上看診、星期三晚上看診、星期四晚上看診、星期五晚上看診、星期六晚上看診、星期日晚上看診","-","","","臺北市","內湖區","東湖里","NNNNNNNNNNNNNNNNNNNNN",121.617002,25.069879
"5901112726","高昱藥局","02 -87519962","台北市內湖區陽光街321巷26號2樓之15",0,17,"2020/03/20 17:22:48","星期一上午看診、星期二上午看診、星期三上午看診、星期四上午看診、星期五上午看診、星期六上午休診、星期日上午休診、星期一下午看診、星期二下午看診、星期三下午看診、星期四下午看診、星期五下午看診、星期六下午看診、星期日下午看診、星期一晚上看診、星期二晚上看診、星期三晚上看診、星期四晚上看診、星期五晚上看診、星期六晚上看診、星期日晚上看診","週六日只處理慢簽項目","","","臺北市","內湖區","湖元里","NNNNNYYNNNNNYYNNNNNYY",121.578613,25.072363
"5901112762","樂活藥師藥局","02 -27968052","台北市內湖區內湖路2段368號",0,297,"2020/03/20 17:22:48","星期一上午看診、星期二上午看診、星期三上午看診、星期四上午看診、星期五上午看診、星期六上午看診、星期日上午休診、星期一下午看診、星期二下午看診、星期三下午看診、星期四下午看診、星期五下午看診、星期六下午看診、星期日下午休診、星期一晚上看診、星期二晚上看診、星期三晚上看診、星期四晚上看診、星期五晚上看診、星期六晚上看診、星期日晚上休診","早上7:30發號碼牌，下午拿號碼牌領口罩","","","臺北市","內湖區","內湖里","NYNYNYYNYNYNYYNYNYNYY",121.590978,25.082302
"5901112780","樂康藥妝藥局","02 -26562110","台北市內湖區文德路117號",0,784,"2020/03/20 17:22:48","星期一上午看診、星期二上午看診、星期三上午看診、星期四上午看診、星期五上午看診、星期六上午看診、星期日上午休診、星期一下午看診、星期二下午看診、星期三下午看診、星期四下午看診、星期五下午看診、星期六下午看診、星期日下午看診、星期一晚上看診、星期二晚上看診、星期三晚上看診、星期四晚上看診、星期五晚上看診、星期六晚上看診、星期日晚上看診","有號碼牌才可領","","","臺北市","內湖區","紫陽里","NNNNNNYNNNNNNYYYYYYYY",121.584052,25.078704
"5901112824","思恩藥局","02 -27965808","台北市內湖區成功路4段61巷26號",0,93,"2020/03/20 17:22:48","星期一上午看診、星期二上午看診、星期三上午看診、星期四上午看診、星期五上午看診、星期六上午看診、星期日上午看診、星期一下午看診、星期二下午看診、星期三下午看診、星期四下午看診、星期五下午看診、星期六下午看診、星期日下午看診、星期一晚上看診、星期二晚上看診、星期三晚上看診、星期四晚上看診、星期五晚上看診、星期六晚上看診、星期日晚上看診","-","","","臺北市","內湖區","清白里","NNNNNNNNNNNNNNNNNNNNN",121.593226,25.081206
"5901112842","早安元氣藥局","02 -27925994","台北市內湖區成功路4段53號1樓",0,1382,"2020/03/20 17:22:48","星期一上午看診、星期二上午看診、星期三上午看診、星期四上午看診、星期五上午看診、星期六上午看診、星期日上午休診、星期一下午看診、星期二下午看診、星期三下午看診、星期四下午看診、星期五下午看診、星期六下午看診、星期日下午休診、星期一晚上看診、星期二晚上看診、星期三晚上看診、星期四晚上看診、星期五晚上看診、星期六晚上看診、星期日晚上休診","6/7 營業時間0830-1200","","","臺北市","內湖區","紫星里","NNNNNNYNNNNNNYNNNNNNY",121.592084,25.081666
"5901112860","展恩藥局","02 -27953041","台北市內湖區民權東路6段136巷4號",0,0,"","星期一上午看診、星期二上午看診、星期三上午看診、星期四上午看診、星期五上午看診、星期六上午看診、星期日上午休診、星期一下午看診、星期二下午看診、星期三下午看診、星期四下午看診、星期五下午看診、星期六下午看診、星期日下午休診、星期一晚上看診、星期二晚上看診、星期三晚上看診、星期四晚上看診、星期五晚上看診、星期六晚上看診、星期日晚上休診","-","","","臺北市","內湖區","湖元里","NNNNNNYNNNNNNYNNNNNNY",121.587698,25.068664
"5901112879","壹零捌藥局","02 -27910061","台北市內湖區成功路4段344號",0,0,"","星期一上午看診、星期二上午看診、星期三上午看診、星期四上午看診、星期五上午看診、星期六上午看診、星期日上午看診、星期一下午看診、星期二下午看診、星期三下午看診、星期四下午看診、星期五下午看診、星期六下午看診、星期日下午看診、星期一晚上看診、星期二晚上看診、星期三晚上看診、星期四晚上看診、星期五晚上看診、星期六晚上看診、星期日晚上看診","實名制口罩週一至週六早上9點開始販售，售完為止","","","臺北市","內湖區","秀湖里","NNNNNNYNNNNNNYNNNNNNY",121.599638,25.084879
"5901112977","瑞光藥局","02 -87513365","台北市內湖區瑞光路212號",0,45,"2020/03/20 17:22:48","星期一上午看診、星期二上午看診、星期三上午看診、星期四上午看診、星期五上午看診、星期六上午看診、星期日上午看診、星期一下午看診、星期二下午看診、星期三下午看診、星期四下午看診、星期五下午看診、星期六下午看診、星期日下午看診、星期一晚上看診、星期二晚上看診、星期三晚上看診、星期四晚上看診、星期五晚上看診、星期六晚上看診、星期日晚上看診","AM08:00-PM22:00","","","臺北市","內湖區","港墘里","NNNNNNNNNNNNNNNNNNNNN",121.57627,25.075249
"5901150600","環安藥局","02 -28828478","台北市士林區大南路244號1樓",0,710,"2020/03/20 17:22:48","星期一上午看診、星期二上午看診、星期三上午看診、星期四上午看診、星期五上午看診、星期六上午看診、星期日上午休診、星期一下午看診、星期二下午看診、星期三下午看診、星期四下午看診、星期五下午看診、星期六下午看診、星期日下午休診、星期一晚上看診、星期二晚上看診、星期三晚上看診、星期四晚上看診、星期五晚上看診、星期六晚上看診、星期日晚上休診","-","","","臺北市","士林區","後港里","NNNNNNYNNNNNNYNNNNNNY",121.520536,25.088601
"5901150682","加赫藥局","02 -28336362","台北市士林區文昌路76號",0,881,"2020/03/20 17:22:48","星期一上午看診、星期二上午看診、星期三上午看診、星期四上午看診、星期五上午看診、星期六上午看診、星期日上午看診、星期一下午看診、星期二下午看診、星期三下午看診、星期四下午看診、星期五下午看診、星期六下午看診、星期日下午看診、星期一晚上看診、星期二晚上看診、星期三晚上看診、星期四晚上看診、星期五晚上看診、星期六晚上看診、星期日晚上看診","防疫口罩販售時間:週一至週六早上08:30，週日早上09:00 ！","","","臺北市","士林區","福佳里","NNNNNNNNNNNNNNNNNNNNN",121.521215,25.096463
"5901150762","麗森藥局","02 -28714152","台北市士林區天母西路51號",0,0,"","星期一上午看診、星期二上午看診、星期三上午看診、星期四上午看診、星期五上午看診、星期六上午看診、星期日上午看診、星期一下午看診、星期二下午看診、星期三下午看診、星期四下午看診、星期五下午看診、星期六下午看診、星期日下午看診、星期一晚上看診、星期二晚上看診、星期三晚上看診、星期四晚上看診、星期五晚上看診、星期六晚上看診、星期日晚上看診","-","","","臺北市","士林區","天玉里","NNNNNNNNNNNNNNNNNNNNN",121.526935,25.118543
"5901150771","天母大和藥師藥局","02 -28310142","台北市士林區德行東路189－1號1樓",0,1124,"2020/03/20 17:22:48","星期一上午看診、星期二上午看診、星期三上午看診、星期四上午看診、星期五上午看診、星期六上午看診、星期日上午休診、星期一下午看診、星期二下午看診、星期三下午看診、星期四下午看診、星期五下午看診、星期六下午看診、星期日下午休診、星期一晚上看診、星期二晚上看診、星期三晚上看診、星期四晚上看診、星期五晚上看診、星期六晚上看診、星期日晚上休診","-","","","臺北市","士林區","三玉里","NNNNNNYNNNNNNYNNNNNNY",121.531665,25.108967
"5901150815","陽明藥局","02 -28612863","台北市士林區菁山路10號1樓",45,3326,"2020/03/20 17:22:48","星期一上午看診、星期二上午看診、星期三上午看診、星期四上午看診、星期五上午看診、星期六上午看診、星期日上午看診、星期一下午看診、星期二下午看診、星期三下午看診、星期四下午看診、星期五下午看診、星期六下午看診、星期日下午看診、星期一晚上看診、星期二晚上看診、星期三晚上看診、星期四晚上看診、星期五晚上看診、星期六晚上看診、星期日晚上看診","早上9點30到12點健保卡排隊.(作業時間2小時)下午2點到晚上8點領回口罩及健保卡","","","臺北市","士林區","陽明里","NNNNNNNYYYYYYYNNNNNNN",121.546925,25.137986
"5901151956","康鈺藥局","02 -28313915","台北市士林區德行東路133號1樓",0,1471,"2020/03/20 17:22:48","星期一上午看診、星期二上午看診、星期三上午看診、星期四上午看診、星期五上午看診、星期六上午看診、星期日上午休診、星期一下午看診、星期二下午看診、星期三下午看診、星期四下午看診、星期五下午看診、星期六下午看診、星期日下午休診、星期一晚上看診、星期二晚上看診、星期三晚上看診、星期四晚上看診、星期五晚上看診、星期六晚上看診、星期日晚上休診","因應口罩排隊人潮。早上九點發號碼牌，只要晚上六點前領回口罩。所以系統上都還有庫存，敬請見諒。","","","臺北市","士林區","三玉里","NNNNNNYNNNNNNYNNNNNNY",121.52921,25.108088
"5901152051","士新藥局","02 -28331332","台北市士林區文昌路62號",0,289,"2020/03/20 17:22:48","星期一上午看診、星期二上午看診、星期三上午看診、星期四上午看診、星期五上午看診、星期六上午看診、星期日上午看診、星期一下午看診、星期二下午看診、星期三下午看診、星期四下午看診、星期五下午看診、星期六下午看診、星期日下午看診、星期一晚上看診、星期二晚上看診、星期三晚上看診、星期四晚上看診、星期五晚上看診、星期六晚上看診、星期日晚上看診","-","","","臺北市","士林區","福佳里","",121.521379,25.096049
"5901152079","資生堂藥局","02 -28857588","台北市士林區承德路4段40巷17號1Ｆ",0,775,"2020/03/20 17:22:48","星期一上午看診、星期二上午看診、星期三上午看診、星期四上午看診、星期五上午看診、星期六上午看診、星期日上午看診、星期一下午看診、星期二下午看診、星期三下午看診、星期四下午看診、星期五下午看診、星期六下午看診、星期日下午看診、星期一晚上看診、星期二晚上看診、星期三晚上看診、星期四晚上看診、星期五晚上看診、星期六晚上看診、星期日晚上看診","-","","","臺北市","士林區","福華里","NNNNNNYNNNNNNYNNNNNNY",121.522022,25.081072
"5901152122","社子全民藥局","02 -28127412","台北市士林區延平北路5段120號",0,1775,"2020/03/20 17:22:48","星期一上午看診、星期二上午看診、星期三上午看診、星期四上午看診、星期五上午看診、星期六上午看診、星期日上午休診、星期一下午看診、星期二下午看診、星期三下午看診、星期四下午看診、星期五下午看診、星期六下午看診、星期日下午休診、星期一晚上看診、星期二晚上看診、星期三晚上看診、星期四晚上看診、星期五晚上看診、星期六晚上看診、星期日晚上休診","-","","","臺北市","士林區","福順里","NNNNNNYNNNNNNYNNNNNNY",121.510565,25.081694
"5901152131","康華藥局","02 -28743223","台北市士林區中山北路7段14巷2號2樓",0,1678,"2020/03/20 17:22:48","星期一上午看診、星期二上午休診、星期三上午看診、星期四上午休診、星期五上午看診、星期六上午看診、星期日上午休診、星期一下午看診、星期二下午看診、星期三下午看診、星期四下午看診、星期五下午看診、星期六下午休診、星期日下午休診、星期一晚上看診、星期二晚上看診、星期三晚上休診、星期四晚上看診、星期五晚上看診、星期六晚上休診、星期日晚上休診","-","","","臺北市","士林區","天山里","NYNYNNYNNNNNYYNNYNNYY",121.531073,25.118636
"5901152186","詠恩藥局","02 -28119479","台北市士林區延平北路5段316號1樓",0,2962,"2020/03/20 17:22:48","星期一上午看診、星期二上午看診、星期三上午看診、星期四上午休診、星期五上午看診、星期六上午看診、星期日上午休診、星期一下午看診、星期二下午看診、星期三下午看診、星期四下午看診、星期五下午看診、星期六下午看診、星期日下午休診、星期一晚上看診、星期二晚上看診、星期三晚上看診、星期四晚上看診、星期五晚上看診、星期六晚上休診、星期日晚上休診","口罩販賣時間：下午3：20開始","","","臺北市","士林區","葫東里","NNNYNNYNNNNNNYNNNNNYY",121.509575,25.086193
"5901152293","安泰藥師藥局","02 -28166977","台北市士林區延平北路六段83號（實際使用：1、2樓）",3,416,"2020/03/20 17:22:48","星期一上午看診、星期二上午看診、星期三上午看診、星期四上午看診、星期五上午看診、星期六上午看診、星期日上午休診、星期一下午看診、星期二下午看診、星期三下午看診、星期四下午看診、星期五下午看診、星期六下午看診、星期日下午休診、星期一晚上看診、星期二晚上看診、星期三晚上看診、星期四晚上看診、星期五晚上看診、星期六晚上看診、星期日晚上休診","-","","","臺北市","士林區","社子里","NNNNNNYNNNNNNYNNNNNNN",121.508666,25.088437
"5901152453","家赫藥局","02 -28346453","台北市士林區忠義街80號1樓",0,672,"2020/03/20 17:22:48","星期一上午看診、星期二上午看診、星期三上午看診、星期四上午看診、星期五上午看診、星期六上午看診、星期日上午休診、星期一下午看診、星期二下午看診、星期三下午看診、星期四下午看診、星期五下午看診、星期六下午看診、星期日下午看診、星期一晚上看診、星期二晚上看診、星期三晚上看診、星期四晚上看診、星期五晚上看診、星期六晚上看診、星期日晚上看診","口罩代售時間:發放號碼牌*周一至周六早上09:00，晚上20:00，周日下午13:30，同時販售！","","","臺北市","士林區","聖山里","NNNNNNYNNNNNNNNNNNNNN",121.531717,25.106141
"5901152471","得安藥局","02 -28836336","台北市士林區文林路140號",363,3612,"2020/03/20 17:22:48","星期一上午休診、星期二上午休診、星期三上午休診、星期四上午休診、星期五上午休診、星期六上午休診、星期日上午休診、星期一下午看診、星期二下午看診、星期三下午看診、星期四下午看診、星期五下午看診、星期六下午看診、星期日下午看診、星期一晚上看診、星期二晚上看診、星期三晚上看診、星期四晚上看診、星期五晚上看診、星期六晚上看診、星期日晚上看診","3月8休息","","","臺北市","士林區","仁勇里","YYYYYYYNNNNNNNNNNNNNN",121.52666,25.088776
"5901152604","達揚藥局","02 -88115559","台北市士林區社正路36號1樓",0,175,"2020/03/20 17:22:48","星期一上午看診、星期二上午看診、星期三上午看診、星期四上午看診、星期五上午看診、星期六上午看診、星期日上午看診、星期一下午看診、星期二下午看診、星期三下午看診、星期四下午看診、星期五下午看診、星期六下午看診、星期日下午看診、星期一晚上看診、星期二晚上看診、星期三晚上看診、星期四晚上看診、星期五晚上看診、星期六晚上看診、星期日晚上看診","-","","","臺北市","士林區","社子里","NNNNNNNNNNNNNNNNNNNNN",121.509901,25.088771
"5901152640","仁大藥局","02 -88113793","台北市士林區社子街13號1樓",0,2410,"2020/03/20 17:22:48","星期一上午看診、星期二上午看診、星期三上午看診、星期四上午看診、星期五上午看診、星期六上午看診、星期日上午休診、星期一下午看診、星期二下午看診、星期三下午看診、星期四下午看診、星期五下午看診、星期六下午休診、星期日下午休診、星期一晚上休診、星期二晚上休診、星期三晚上休診、星期四晚上休診、星期五晚上休診、星期六晚上休診、星期日晚上休診","號碼牌發放時間自:8:30;口罩代售時間自8:30(逢週一自10:00開始)","","","臺北市","士林區","社新里","NNNNNNYNNNNNYYYYYYYYY",121.508333,25.08769
"5901152659","和樹藥局","02 -28821188","台北市士林區後港街45巷1號1樓",0,207,"2020/03/20 17:22:48","星期一上午看診、星期二上午看診、星期三上午看診、星期四上午看診、星期五上午看診、星期六上午看診、星期日上午休診、星期一下午看診、星期二下午看診、星期三下午看診、星期四下午看診、星期五下午看診、星期六下午看診、星期日下午看診、星期一晚上看診、星期二晚上看診、星期三晚上看診、星期四晚上看診、星期五晚上看診、星期六晚上看診、星期日晚上看診","-","","","臺北市","士林區","前港里","NNNNNNYNNNNNNYNNNNNNY",121.522772,25.084438
"5901152686","三光藥局","02 -28123786","台北市士林區延平北路5段320號1樓",0,2225,"2020/03/20 17:22:48","星期一上午看診、星期二上午看診、星期三上午看診、星期四上午看診、星期五上午看診、星期六上午看診、星期日上午看診、星期一下午看診、星期二下午看診、星期三下午看診、星期四下午看診、星期五下午看診、星期六下午看診、星期日下午看診、星期一晚上看診、星期二晚上看診、星期三晚上看診、星期四晚上看診、星期五晚上看診、星期六晚上看診、星期日晚上看診","-","","","臺北市","士林區","葫東里","NNNNNNNNNNNNNNNNNNNNN",121.509549,25.086279
"5901152720","博信藥局","02 -28128295","台北市士林區延平北路6段61號",0,46,"2020/03/20 17:22:48","星期一上午看診、星期二上午看診、星期三上午看診、星期四上午看診、星期五上午看診、星期六上午看診、星期日上午休診、星期一下午看診、星期二下午看診、星期三下午看診、星期四下午看診、星期五下午看診、星期六下午看診、星期日下午休診、星期一晚上看診、星期二晚上看診、星期三晚上看診、星期四晚上看診、星期五晚上看診、星期六晚上看診、星期日晚上休診","口罩代售時間自14:30起，現場排隊","","","臺北市","士林區","社新里","NNNNNNYNNNNNNYNNNNNNY",121.508764,25.087878
"5901152739","芳圓藥局","02 -28168666","台北市士林區社子街26－1號",0,1070,"2020/03/20 17:22:48","星期一上午看診、星期二上午看診、星期三上午看診、星期四上午看診、星期五上午看診、星期六上午看診、星期日上午休診、星期一下午看診、星期二下午看診、星期三下午看診、星期四下午看診、星期五下午看診、星期六下午休診、星期日下午休診、星期一晚上看診、星期二晚上看診、星期三晚上看診、星期四晚上看診、星期五晚上看診、星期六晚上休診、星期日晚上休診","早上9點20分現場代售口罩，數量以藥局業務量調整!剩餘口罩下午4點15分現場排隊代售","","","臺北市","士林區","社新里","NNNNNNYNNNNNYYNNNNNYY",121.507966,25.087495
"5901152748","柏雅大藥局","02 -88664398","台北市士林區德行西路64號",0,0,"","星期一上午看診、星期二上午看診、星期三上午看診、星期四上午看診、星期五上午看診、星期六上午看診、星期日上午休診、星期一下午看診、星期二下午看診、星期三下午看診、星期四下午看診、星期五下午看診、星期六下午看診、星期日下午休診、星期一晚上看診、星期二晚上看診、星期三晚上看診、星期四晚上看診、星期五晚上看診、星期六晚上看診、星期日晚上休診","-","","","臺北市","士林區","德行里","NNNNNNYNNNNNNYNNNNNNY",121.522685,25.105058
"5901152793","信光藥局","02 -28366277","台北市士林區文昌路68號",0,1274,"2020/03/20 17:22:48","星期一上午看診、星期二上午看診、星期三上午看診、星期四上午看診、星期五上午看診、星期六上午看診、星期日上午看診、星期一下午看診、星期二下午看診、星期三下午看診、星期四下午看診、星期五下午看診、星期六下午看診、星期日下午看診、星期一晚上看診、星期二晚上看診、星期三晚上看診、星期四晚上看診、星期五晚上看診、星期六晚上看診、星期日晚上看診","九點半 十點半.. 每整點半發20份口罩  (周日十點半才開始發)","","","臺北市","士林區","福佳里","NNNNNNNNNNNNNNNNNNNNN",121.521358,25.096194
"5901152837","文昌大藥局","02 -28376196","台北市士林區文昌路72號",0,2158,"2020/03/20 17:22:48","星期一上午看診、星期二上午看診、星期三上午看診、星期四上午看診、星期五上午看診、星期六上午看診、星期日上午看診、星期一下午看診、星期二下午看診、星期三下午看診、星期四下午看診、星期五下午看診、星期六下午看診、星期日下午看診、星期一晚上看診、星期二晚上看診、星期三晚上看診、星期四晚上看診、星期五晚上看診、星期六晚上看診、星期日晚上看診","-","","","臺北市","士林區","福佳里","NNNNNNNNNNNNNNNNNNNNN",121.521265,25.096341
"5901152873","幸福藥局","02 -28346650","台北市士林區德行東路109巷8號",0,725,"2020/03/20 17:22:48","星期一上午看診、星期二上午看診、星期三上午看診、星期四上午看診、星期五上午看診、星期六上午看診、星期日上午看診、星期一下午看診、星期二下午看診、星期三下午看診、星期四下午看診、星期五下午看診、星期六下午看診、星期日下午看診、星期一晚上看診、星期二晚上看診、星期三晚上看診、星期四晚上看診、星期五晚上看診、星期六晚上看診、星期日晚上看診","防疫口罩固定於每日(含星期六，日)下午兩點至五點準時販售，售完為止. 但因目前兒童口罩多有剩下可隨時來店購買.","","","臺北市","士林區","蘭雅里","NNNNNNNNNNNNNNNNNNNNN",121.528394,25.108121
"5901152882","天爵藥局","02 -28733759","台北市士林區中山北路6段450巷1號",0,2192,"2020/03/20 17:22:48","星期一上午看診、星期二上午休診、星期三上午看診、星期四上午看診、星期五上午看診、星期六上午看診、星期日上午休診、星期一下午看診、星期二下午看診、星期三下午看診、星期四下午看診、星期五下午看診、星期六下午看診、星期日下午休診、星期一晚上看診、星期二晚上看診、星期三晚上看診、星期四晚上看診、星期五晚上看診、星期六晚上看診、星期日晚上休診","-","","","臺北市","士林區","天祿里","NYNNNNYNNNNNNYNNNNNNY",121.527639,25.114247
"5901152971","石川藥師藥局","02 -28385850","台北市士林區忠義街70號",0,1877,"2020/03/20 17:22:48","星期一上午看診、星期二上午看診、星期三上午看診、星期四上午看診、星期五上午看診、星期六上午看診、星期日上午休診、星期一下午看診、星期二下午看診、星期三下午看診、星期四下午看診、星期五下午看診、星期六下午看診、星期日下午休診、星期一晚上看診、星期二晚上看診、星期三晚上看診、星期四晚上看診、星期五晚上看診、星期六晚上看診、星期日晚上休診","口罩發放時間，如有更改。前一天會公告。","","","臺北市","士林區","聖山里","NNNNNNYNNNNNNYNNNNNNY",121.53142,25.105944
"5901153058","誼安藥局","02 -28851899","台北市士林區通河街42號",405,2607,"2020/03/20 17:22:48","星期一上午看診、星期二上午看診、星期三上午看診、星期四上午看診、星期五上午看診、星期六上午看診、星期日上午休診、星期一下午看診、星期二下午看診、星期三下午看診、星期四下午看診、星期五下午看診、星期六下午看診、星期日下午休診、星期一晚上看診、星期二晚上看診、星期三晚上看診、星期四晚上看診、星期五晚上看診、星期六晚上看診、星期日晚上休診","營業時間8:30~12:00/14:301~21:00，週日不營業，口罩販賣時間:週一至五17:00/週六10:30/國定假日為10點，營業到12點","","","臺北市","士林區","明勝里","NNNNNNYNNNNNNYNNNNNNY",121.521469,25.080442
"5901153101","聖賢藥局","02 -28833046","台北市士林區士商路58號",0,661,"2020/03/20 17:22:48","星期一上午看診、星期二上午看診、星期三上午看診、星期四上午看診、星期五上午看診、星期六上午看診、星期日上午休診、星期一下午看診、星期二下午看診、星期三下午看診、星期四下午看診、星期五下午看診、星期六下午看診、星期日下午休診、星期一晚上看診、星期二晚上看診、星期三晚上看診、星期四晚上看診、星期五晚上看診、星期六晚上休診、星期日晚上休診","防疫口罩: 週一至週六早上8:30開始販售至售完。週日店休。","","","臺北市","士林區","後港里","NNNNNNYNNNNNNYNNNNNYY",121.520033,25.090564
"5901153110","美麗田藥局","02 -28855990","台北市士林區通河街78號",0,896,"2020/03/20 17:22:48","星期一上午看診、星期二上午看診、星期三上午看診、星期四上午看診、星期五上午看診、星期六上午看診、星期日上午看診、星期一下午看診、星期二下午看診、星期三下午看診、星期四下午看診、星期五下午看診、星期六下午看診、星期日下午看診、星期一晚上看診、星期二晚上看診、星期三晚上看診、星期四晚上看診、星期五晚上看診、星期六晚上看診、星期日晚上看診","-","","","臺北市","士林區","明勝里","NNNNNNNNNNNNNNNNNNNNN",121.520436,25.080901
"5901153245","大東健保藥局","02 -28834672","臺北市士林區大東路86－4號",0,2059,"2020/03/20 17:22:48","星期一上午看診、星期二上午看診、星期三上午看診、星期四上午看診、星期五上午看診、星期六上午看診、星期日上午看診、星期一下午看診、星期二下午看診、星期三下午看診、星期四下午看診、星期五下午看診、星期六下午看診、星期日下午看診、星期一晚上看診、星期二晚上看診、星期三晚上看診、星期四晚上看診、星期五晚上看診、星期六晚上看診、星期日晚上休診","-","","","臺北市","士林區","仁勇里","NNNNNNNNNNNNNNNNNNNYY",121.525672,25.091314
"5901153263","健揚藥局","02 -28163698","台北市士林區延平北路5段251號",0,90,"2020/03/20 17:22:48","星期一上午看診、星期二上午看診、星期三上午看診、星期四上午看診、星期五上午看診、星期六上午看診、星期日上午看診、星期一下午看診、星期二下午看診、星期三下午看診、星期四下午看診、星期五下午看診、星期六下午看診、星期日下午看診、星期一晚上看診、星期二晚上看診、星期三晚上看診、星期四晚上看診、星期五晚上看診、星期六晚上看診、星期日晚上看診","-","","","臺北市","士林區","葫蘆里","NNNNNNNNNNNNNNNNNNNNN",121.509683,25.084827
"5901153272","光榮藥局","02 -28136060","台北市士林區社中街118號",0,123,"2020/03/20 17:22:48","星期一上午看診、星期二上午看診、星期三上午看診、星期四上午看診、星期五上午看診、星期六上午看診、星期日上午看診、星期一下午看診、星期二下午看診、星期三下午休診、星期四下午看診、星期五下午看診、星期六下午看診、星期日下午看診、星期一晚上看診、星期二晚上看診、星期三晚上休診、星期四晚上看診、星期五晚上看診、星期六晚上看診、星期日晚上看診","-","","","臺北市","士林區","社子里","NNNNNNNNNNNNNNNNNNNNN",121.510345,25.089901
"5901153325","天母康甯健保藥局","02 -28366631","台北市士林區克強路8號",0,420,"2020/03/20 17:22:48","星期一上午看診、星期二上午看診、星期三上午看診、星期四上午看診、星期五上午看診、星期六上午看診、星期日上午休診、星期一下午看診、星期二下午看診、星期三下午看診、星期四下午看診、星期五下午看診、星期六下午看診、星期日下午休診、星期一晚上看診、星期二晚上看診、星期三晚上看診、星期四晚上看診、星期五晚上看診、星期六晚上看診、星期日晚上休診","-","","","臺北市","士林區","蘭興里","NNNNNNYNNNNNNYNNNNNNY",121.524532,25.108907
"5901153405","社正藥局","02 -28118704","台北市士林區社正路12號",0,923,"2020/03/20 17:22:48","星期一上午看診、星期二上午看診、星期三上午看診、星期四上午看診、星期五上午看診、星期六上午看診、星期日上午休診、星期一下午看診、星期二下午看診、星期三下午看診、星期四下午看診、星期五下午看診、星期六下午看診、星期日下午休診、星期一晚上看診、星期二晚上看診、星期三晚上看診、星期四晚上看診、星期五晚上看診、星期六晚上休診、星期日晚上休診","-","","","臺北市","士林區","社子里","NNNNNNYNNNNNNYNNNNNYY",121.509278,25.088538
"5901153432","大南春天生活藥局","02 -28882196","台北市士林區大南路317、319號",0,135,"2020/03/20 17:22:48","星期一上午看診、星期二上午看診、星期三上午看診、星期四上午看診、星期五上午看診、星期六上午看診、星期日上午看診、星期一下午看診、星期二下午看診、星期三下午看診、星期四下午看診、星期五下午看診、星期六下午看診、星期日下午看診、星期一晚上看診、星期二晚上看診、星期三晚上看診、星期四晚上看診、星期五晚上看診、星期六晚上看診、星期日晚上看診","口罩下午03:30開始銷售","","","臺北市","士林區","後港里","NNNNNNNNNNNNNNNNNNNNN",121.516579,25.090429
"5901153487","和謙藥局","02 -28165678","台北市士林區社中街362號",0,110,"2020/03/20 17:22:48","星期一上午看診、星期二上午看診、星期三上午看診、星期四上午看診、星期五上午看診、星期六上午看診、星期日上午看診、星期一下午看診、星期二下午看診、星期三下午看診、星期四下午看診、星期五下午看診、星期六下午看診、星期日下午休診、星期一晚上看診、星期二晚上看診、星期三晚上看診、星期四晚上看診、星期五晚上看診、星期六晚上休診、星期日晚上休診","每日9點開始發放號碼牌，11:30前若未來領取，則視同放棄，會將機會留給現場病人.","","","臺北市","士林區","永倫里","NNNNNNNNNNNNNYNNNNNYY",121.504051,25.092421
"5901153496","躍獅忠誠藥局","02 -28387948","台北市士林區忠義街70號",0,182,"2020/03/20 17:22:48","星期一上午看診、星期二上午看診、星期三上午看診、星期四上午看診、星期五上午看診、星期六上午看診、星期日上午看診、星期一下午看診、星期二下午看診、星期三下午看診、星期四下午看診、星期五下午看診、星期六下午看診、星期日下午看診、星期一晚上看診、星期二晚上看診、星期三晚上看診、星期四晚上看診、星期五晚上看診、星期六晚上看診、星期日晚上看診","-","","","臺北市","士林區","聖山里","NNNNNNNNNNNNNNNNNNNNN",121.53142,25.105944
"5901153503","祥新藥局","02 -28110906","台北市士林區社子街65號",0,2325,"2020/03/20 17:22:48","星期一上午看診、星期二上午看診、星期三上午看診、星期四上午看診、星期五上午看診、星期六上午看診、星期日上午休診、星期一下午看診、星期二下午看診、星期三下午看診、星期四下午看診、星期五下午看診、星期六下午休診、星期日下午休診、星期一晚上看診、星期二晚上看診、星期三晚上看診、星期四晚上看診、星期五晚上看診、星期六晚上休診、星期日晚上休診","-","","","臺北市","士林區","社新里","NNNNNNYNNNNNYYNNNNNYY",121.506745,25.087513
"5901153521","天母台安藥局","02 -28728017","台北市士林區天母西路34號",0,0,"","星期一上午看診、星期二上午看診、星期三上午看診、星期四上午看診、星期五上午看診、星期六上午看診、星期日上午看診、星期一下午看診、星期二下午看診、星期三下午看診、星期四下午看診、星期五下午看診、星期六下午看診、星期日下午看診、星期一晚上看診、星期二晚上看診、星期三晚上看診、星期四晚上看診、星期五晚上看診、星期六晚上看診、星期日晚上看診","-","","","臺北市","士林區","天壽里","NNNNNNNNNNNNNNNNNNNNN",121.526217,25.118348
"5901153567","華齡春天生活藥局","02 -28882156","台北市士林區華齡街36、38號",0,135,"2020/03/20 17:22:48","星期一上午看診、星期二上午看診、星期三上午看診、星期四上午看診、星期五上午看診、星期六上午看診、星期日上午看診、星期一下午看診、星期二下午看診、星期三下午看診、星期四下午看診、星期五下午看診、星期六下午看診、星期日下午看診、星期一晚上看診、星期二晚上看診、星期三晚上看診、星期四晚上看診、星期五晚上看診、星期六晚上看診、星期日晚上看診","下午3點半開始發號碼牌持健保卡購買口罩到晚上10點售完為止","","","臺北市","士林區","前港里","NNNNNNNNNNNNNNNNNNNNN",121.519941,25.088494
"5901153585","德行春天生活藥局","02 -28380306","台北市士林區德行東路76號",0,149,"2020/03/20 17:22:48","星期一上午看診、星期二上午看診、星期三上午看診、星期四上午看診、星期五上午看診、星期六上午看診、星期日上午看診、星期一下午看診、星期二下午看診、星期三下午看診、星期四下午看診、星期五下午看診、星期六下午看診、星期日下午看診、星期一晚上看診、星期二晚上看診、星期三晚上看診、星期四晚上看診、星期五晚上看診、星期六晚上看診、星期日晚上看診","下午3點半持健保卡領號碼牌販售口罩到晚上10點售完為止","","","臺北市","士林區","忠誠里","NNNNNNNNNNNNNNNNNNNNN",121.527464,25.107302
"5901153610","家安健保藥局","02 -28322182","台北市士林區德行東路109巷119號",0,25,"2020/03/20 17:22:48","星期一上午看診、星期二上午看診、星期三上午看診、星期四上午看診、星期五上午看診、星期六上午看診、星期日上午看診、星期一下午看診、星期二下午看診、星期三下午看診、星期四下午看診、星期五下午看診、星期六下午看診、星期日下午看診、星期一晚上看診、星期二晚上看診、星期三晚上看診、星期四晚上看診、星期五晚上看診、星期六晚上看診、星期日晚上看診","-","","","臺北市","士林區","蘭雅里","NNNNNNNNNNNNNNNNNNNNN",121.528778,25.111562
"5901153656","德行盛康藥局","02 -28348756","台北市士林區德行東路206之1號",0,0,"","星期一上午看診、星期二上午看診、星期三上午看診、星期四上午看診、星期五上午看診、星期六上午看診、星期日上午看診、星期一下午看診、星期二下午看診、星期三下午看診、星期四下午看診、星期五下午看診、星期六下午看診、星期日下午看診、星期一晚上看診、星期二晚上看診、星期三晚上看診、星期四晚上看診、星期五晚上看診、星期六晚上看診、星期日晚上看診","口罩發放時間為每天下午兩點","","","臺北市","士林區","聖山里","NNNNNNNNNNNNNNNNNNNNN",121.531987,25.108898
"5901153665","康佑藥局","02 -28119981","台北市士林區延平北路5段176號",0,2197,"2020/03/20 17:22:48","星期一上午看診、星期二上午看診、星期三上午看診、星期四上午看診、星期五上午看診、星期六上午看診、星期日上午休診、星期一下午看診、星期二下午看診、星期三下午看診、星期四下午看診、星期五下午看診、星期六下午看診、星期日下午休診、星期一晚上看診、星期二晚上看診、星期三晚上看診、星期四晚上看診、星期五晚上看診、星期六晚上看診、星期日晚上休診","口罩代售時間自1500:1700；現場排隊","","","臺北市","士林區","福順里","NNNNNNYNNNNNNYNNNNNNY",121.510287,25.082995
"5901153674","愛佳藥局","02 -28811199","台北市士林區承德路4段222之1號",0,340,"2020/03/20 17:22:48","星期一上午看診、星期二上午看診、星期三上午看診、星期四上午看診、星期五上午看診、星期六上午休診、星期日上午看診、星期一下午看診、星期二下午看診、星期三下午看診、星期四下午看診、星期五下午看診、星期六下午休診、星期日下午看診、星期一晚上看診、星期二晚上看診、星期三晚上看診、星期四晚上看診、星期五晚上看診、星期六晚上休診、星期日晚上看診","週一~週五及週日上午10點開始販售防疫口罩(實名制口罩)，週六休息不販售。","","","臺北市","士林區","前港里","NNNNNYNNNNNNYNNNNNNYN",121.521473,25.088502
"5901153683","安奕藥局","02 -28133289","台北市士林區葫蘆街30巷12號",3,1681,"2020/03/20 17:22:48","星期一上午看診、星期二上午看診、星期三上午看診、星期四上午看診、星期五上午看診、星期六上午看診、星期日上午休診、星期一下午看診、星期二下午看診、星期三下午看診、星期四下午看診、星期五下午看診、星期六下午看診、星期日下午休診、星期一晚上看診、星期二晚上看診、星期三晚上看診、星期四晚上看診、星期五晚上看診、星期六晚上看診、星期日晚上休診","防疫口罩購買時間:早上9:30-12:00","","","臺北市","士林區","富光里","NNNNNNYNNNNNNYNNNNNNY",121.509931,25.080338
"5901153709","全予藥局","02 -28386955","台北市士林區德行東路221號",0,496,"2020/03/20 17:22:48","星期一上午看診、星期二上午看診、星期三上午看診、星期四上午看診、星期五上午看診、星期六上午看診、星期日上午看診、星期一下午看診、星期二下午看診、星期三下午看診、星期四下午看診、星期五下午看診、星期六下午看診、星期日下午看診、星期一晚上看診、星期二晚上看診、星期三晚上看診、星期四晚上看診、星期五晚上看診、星期六晚上看診、星期日晚上看診","-","周一至週六:上午11點發號碼牌   下午3點領取口罩
週日:公休","https://www.facebook.com/OiCare/","臺北市","士林區","三玉里","NNNNNNNNNNNNNNNNNNNNN",121.532885,25.109385
"5901153727","前港盛康藥局","02 -28831079","台北市士林區前港街28號",45,95,"2020/03/20 17:22:48","星期一上午看診、星期二上午看診、星期三上午看診、星期四上午看診、星期五上午看診、星期六上午休診、星期日上午休診、星期一下午看診、星期二下午看診、星期三下午看診、星期四下午看診、星期五下午看診、星期六下午休診、星期日下午休診、星期一晚上看診、星期二晚上看診、星期三晚上看診、星期四晚上看診、星期五晚上看診、星期六晚上休診、星期日晚上休診","-","","","臺北市","士林區","前港里","NNNNNYYNNNNNYYNNNNNYY",121.52205,25.084599
"5901153745","藥本家藥局","02 -28766682","台北市士林區中山北路7段14巷26號",0,0,"","星期一上午看診、星期二上午看診、星期三上午看診、星期四上午看診、星期五上午看診、星期六上午休診、星期日上午休診、星期一下午看診、星期二下午看診、星期三下午看診、星期四下午看診、星期五下午看診、星期六下午休診、星期日下午休診、星期一晚上看診、星期二晚上看診、星期三晚上看診、星期四晚上看診、星期五晚上看診、星期六晚上休診、星期日晚上休診","周一至周五13:00開賣成人防疫口罩。兒童口罩直接購買。週六 日休息","","","臺北市","士林區","天山里","NNNNNYYNNNNNYYNNNNNYY",121.532774,25.118845
"5901153781","文林生活健保藥局","   -","",0,72,"2020/03/20 17:22:48","","","","","","","","",121.523999,25.097788
"5901153790","天母盛康藥局","02 -28720208","台北市士林區天母東路8巷84號",0,125,"2020/03/20 17:22:48","星期一上午看診、星期二上午看診、星期三上午看診、星期四上午看診、星期五上午看診、星期六上午看診、星期日上午看診、星期一下午看診、星期二下午看診、星期三下午看診、星期四下午看診、星期五下午看診、星期六下午看診、星期日下午看診、星期一晚上看診、星期二晚上看診、星期三晚上看診、星期四晚上看診、星期五晚上看診、星期六晚上看診、星期日晚上看診","每天下午13:30開始販賣政府防疫口罩，賣完為止。不發號碼牌。","","","臺北市","士林區","天福里","NNNNNNNNNNNNNNNNNNNNN",121.530433,25.114835
"5901153807","中山盛康藥局","02 -28771887","台北市士林區中山北路7段162號",0,0,"","星期一上午看診、星期二上午看診、星期三上午看診、星期四上午看診、星期五上午看診、星期六上午看診、星期日上午看診、星期一下午看診、星期二下午看診、星期三下午看診、星期四下午看診、星期五下午看診、星期六下午看診、星期日下午看診、星期一晚上看診、星期二晚上看診、星期三晚上看診、星期四晚上看診、星期五晚上看診、星期六晚上看診、星期日晚上看診","每天早上上午9.00開始發放號碼牌 發完號碼牌可以現場即時購買或於當日中午12點前回店購買","","","臺北市","士林區","天山里","NNNNNNNNNNNNNNNNNNNNN",121.53271,25.124165
"5901153816","士東台安藥局","02 -28315667","台北市士林區士東路86之2號（實際使用：1樓）",0,0,"","星期一上午看診、星期二上午看診、星期三上午看診、星期四上午看診、星期五上午看診、星期六上午看診、星期日上午看診、星期一下午看診、星期二下午看診、星期三下午看診、星期四下午看診、星期五下午看診、星期六下午看診、星期日下午看診、星期一晚上看診、星期二晚上看診、星期三晚上看診、星期四晚上看診、星期五晚上看診、星期六晚上看診、星期日晚上看診","營業時間：上午8：00至晚上24：00（口罩代售時間上午11：00；現場排隊）","","","臺北市","士林區","蘭雅里","NNNNNNNNNNNNNNNNNNNNN",121.528774,25.111825
"5901153825","太和堂中西藥局","02 -28814122","台北市士林區大東路74號（實際使用：1樓）",1,809,"2020/03/20 17:22:48","星期一上午看診、星期二上午看診、星期三上午看診、星期四上午看診、星期五上午看診、星期六上午看診、星期日上午休診、星期一下午看診、星期二下午看診、星期三下午看診、星期四下午看診、星期五下午看診、星期六下午看診、星期日下午休診、星期一晚上看診、星期二晚上看診、星期三晚上看診、星期四晚上看診、星期五晚上看診、星期六晚上看診、星期日晚上休診","口罩每日早上08:30發放號碼牌並同時販售。網站成人剩餘量僅供參考不代表藥局有剩。兒童口罩全天販售。周日公休。","防疫口罩販售時間：週一至週六早上08:30發放號碼牌，週日休息。
成人口罩庫存量依現場發放號碼牌為主，『網站口罩庫存量僅供參考』。","","臺北市","士林區","仁勇里","NNNNNNYNNNNNNYNNNNNNY",121.525679,25.090366
"5901153852","躍獅芝山藥局","02 -28365822","台北市士林區福華路154號（實際使用：1樓）",0,929,"2020/03/20 17:22:48","星期一上午看診、星期二上午看診、星期三上午看診、星期四上午看診、星期五上午看診、星期六上午看診、星期日上午看診、星期一下午看診、星期二下午看診、星期三下午看診、星期四下午看診、星期五下午看診、星期六下午看診、星期日下午看診、星期一晚上看診、星期二晚上看診、星期三晚上看診、星期四晚上看診、星期五晚上看診、星期六晚上看診、星期日晚上看診","口罩販賣時段:下午14點至售完為止","","","臺北市","士林區","德行里","",121.522731,25.10357
"5901153861","佩佩藥局","02 -28382662","台北市士林區中山北路6段182號",0,391,"2020/03/20 17:22:48","星期一上午看診、星期二上午看診、星期三上午看診、星期四上午看診、星期五上午看診、星期六上午看診、星期日上午休診、星期一下午看診、星期二下午看診、星期三下午看診、星期四下午看診、星期五下午看診、星期六下午看診、星期日下午休診、星期一晚上看診、星期二晚上看診、星期三晚上看診、星期四晚上看診、星期五晚上看診、星期六晚上休診、星期日晚上休診","每日上午08：30開始販售口罩，售完為止。","","","臺北市","士林區","蘭雅里","NNNNNNYNNNNNNYNNNNNYY",121.525201,25.107587
"5901153870","容育藥局","02 -28113680","台北市士林區延平北路6段8號（實際使用：1樓）",2,549,"2020/03/20 17:22:48","星期一上午看診、星期二上午看診、星期三上午看診、星期四上午看診、星期五上午看診、星期六上午看診、星期日上午休診、星期一下午看診、星期二下午看診、星期三下午看診、星期四下午看診、星期五下午看診、星期六下午看診、星期日下午休診、星期一晚上看診、星期二晚上看診、星期三晚上看診、星期四晚上看診、星期五晚上看診、星期六晚上休診、星期日晚上休診","周1~周6早上8:30~10:30發放號碼牌，憑號碼牌領取成人口罩，其餘時間不賣成人口罩，當天沒拿到號碼牌者勿再詢問口罩問題了","","","臺北市","士林區","社子里","NNNNNNYNNNNNNYNNNNNYY",121.509271,25.087121
"5901153889","新光維康藥局","02 -28801011","台北市士林區基河路250之3號（實際使用：1樓）",0,1182,"2020/03/20 17:22:48","星期一上午看診、星期二上午看診、星期三上午看診、星期四上午看診、星期五上午看診、星期六上午休診、星期日上午休診、星期一下午看診、星期二下午看診、星期三下午看診、星期四下午看診、星期五下午看診、星期六下午休診、星期日下午休診、星期一晚上休診、星期二晚上休診、星期三晚上休診、星期四晚上休診、星期五晚上休診、星期六晚上休診、星期日晚上休診","發口罩時間，平日9，12，16，19點; 週六9，12，14，16點","","","臺北市","士林區","福德里","NNNNNNYNNNNNNYNNNNNYY",121.520806,25.091874
"5901153898","文林生活健保藥局","02 -28381971","台北市士林區文林路562號（實際使用：1樓）",0,935,"2020/03/20 17:22:48","星期一上午看診、星期二上午看診、星期三上午看診、星期四上午看診、星期五上午看診、星期六上午看診、星期日上午休診、星期一下午看診、星期二下午看診、星期三下午看診、星期四下午看診、星期五下午看診、星期六下午看診、星期日下午休診、星期一晚上看診、星期二晚上休診、星期三晚上看診、星期四晚上休診、星期五晚上看診、星期六晚上休診、星期日晚上休診","星期一~四及六 8:40 星期五14:40 開始銷售 中午午休時間12:00-14:30 星期日公休","","","臺北市","士林區","舊佳里","NNNNNNYNNNNNNYNYNYNYY",121.523999,25.097788
"5901160044","石牌藥局","02 -28214986","台北市北投區石牌路1段49號",0,93,"2020/03/20 17:22:48","星期一上午看診、星期二上午看診、星期三上午看診、星期四上午看診、星期五上午看診、星期六上午看診、星期日上午休診、星期一下午看診、星期二下午看診、星期三下午看診、星期四下午看診、星期五下午看診、星期六下午看診、星期日下午休診、星期一晚上看診、星期二晚上看診、星期三晚上看診、星期四晚上看診、星期五晚上看診、星期六晚上看診、星期日晚上休診","口罩及號碼牌發放時間為早上9點開始，請別離開領取很快速","","","臺北市","北投區","吉慶里","NNNNNNYNNNNNNYNNNNNNY",121.510583,25.113297
"5901160053","天蓮藥局","02 -28211824","台北市北投區石牌路1段166巷115號",0,1172,"2020/03/20 17:22:48","星期一上午看診、星期二上午看診、星期三上午看診、星期四上午看診、星期五上午看診、星期六上午看診、星期日上午看診、星期一下午看診、星期二下午看診、星期三下午看診、星期四下午看診、星期五下午看診、星期六下午休診、星期日下午看診、星期一晚上看診、星期二晚上看診、星期三晚上看診、星期四晚上看診、星期五晚上看診、星期六晚上休診、星期日晚上看診","-","週一∼週五9:00（160份大人，50份小孩） 20:00（40份大人） 週六 9:00（200份大人，50份小孩） 週日 8:00∼9:00（160份大人，50份小孩） 20:00（40份大人）","","臺北市","北投區","榮光里","NNNNNNNNNNNNYNNNNNNYN",121.515515,25.111918
"5901160062","丸三大藥局","02 -28230637","台北市北投區自強街105號",0,884,"2020/03/20 17:22:48","星期一上午看診、星期二上午看診、星期三上午看診、星期四上午看診、星期五上午看診、星期六上午看診、星期日上午休診、星期一下午看診、星期二下午看診、星期三下午看診、星期四下午看診、星期五下午看診、星期六下午看診、星期日下午休診、星期一晚上看診、星期二晚上看診、星期三晚上看診、星期四晚上看診、星期五晚上看診、星期六晚上看診、星期日晚上休診","-","","","臺北市","北投區","榮光里","NNNNNNYNNNNNNYNNNNNNY",121.515267,25.110859
"5901160099","進春藥局","02 -28216938","台北市北投區明德路151號",0,1274,"2020/03/20 17:22:48","星期一上午看診、星期二上午看診、星期三上午看診、星期四上午看診、星期五上午看診、星期六上午看診、星期日上午看診、星期一下午看診、星期二下午看診、星期三下午看診、星期四下午看診、星期五下午看診、星期六下午看診、星期日下午看診、星期一晚上看診、星期二晚上看診、星期三晚上看診、星期四晚上看診、星期五晚上看診、星期六晚上看診、星期日晚上看診","-","","","臺北市","北投區","裕民里","NNNNNNNNNNNNNNNNNNNNN",121.520643,25.110863
"5901160142","德昇藥局","02 -28217565","台北市北投區裕民二路20號",0,970,"2020/03/20 17:22:48","星期一上午看診、星期二上午看診、星期三上午看診、星期四上午看診、星期五上午看診、星期六上午看診、星期日上午休診、星期一下午看診、星期二下午看診、星期三下午看診、星期四下午看診、星期五下午看診、星期六下午看診、星期日下午休診、星期一晚上看診、星期二晚上看診、星期三晚上看診、星期四晚上看診、星期五晚上看診、星期六晚上看診、星期日晚上休診","-","","","臺北市","北投區","振華里","NNNNNNYNNNNNNYNNNNNNY",121.516957,25.116039
"5901160197","川秀藥局","02 -28270702","台北市北投區石牌路2段99巷9號1樓",0,125,"2020/03/20 17:22:48","星期一上午看診、星期二上午看診、星期三上午看診、星期四上午看診、星期五上午看診、星期六上午看診、星期日上午看診、星期一下午看診、星期二下午看診、星期三下午看診、星期四下午看診、星期五下午看診、星期六下午看診、星期日下午看診、星期一晚上看診、星期二晚上看診、星期三晚上看診、星期四晚上看診、星期五晚上看診、星期六晚上看診、星期日晚上看診","-","","","臺北市","北投區","永明里","NNNNNNNNNNNNNNNNNNNNN",121.516637,25.117921
"5901160222","新祥藥局","02 -28582551","台北市北投區知行路208號－1",1,884,"2020/03/20 17:22:48","星期一上午看診、星期二上午看診、星期三上午看診、星期四上午看診、星期五上午看診、星期六上午看診、星期日上午休診、星期一下午看診、星期二下午看診、星期三下午看診、星期四下午看診、星期五下午看診、星期六下午看診、星期日下午休診、星期一晚上看診、星期二晚上看診、星期三晚上看診、星期四晚上看診、星期五晚上看診、星期六晚上看診、星期日晚上休診","-","","","臺北市","北投區","關渡里","NNNNNNYNNNNNNYNNNNNNY",121.46682,25.119352
"5901172197","得揚藥局","02 -87884667","台北市信義區忠孝東路5段452號1樓",0,1854,"2020/03/20 17:22:48","星期一上午看診、星期二上午看診、星期三上午看診、星期四上午看診、星期五上午看診、星期六上午看診、星期日上午休診、星期一下午休診、星期二下午休診、星期三下午休診、星期四下午休診、星期五下午休診、星期六下午休診、星期日下午休診、星期一晚上看診、星期二晚上看診、星期三晚上看診、星期四晚上看診、星期五晚上看診、星期六晚上看診、星期日晚上休診","-","","","臺北市","信義區","廣居里","NNNNNNYYYYYYYYNNNNNNY",121.576322,25.04069
"5901172213","華泰藥局","02 -27601992","台北市信義區虎林街82巷5號",0,2020,"2020/03/20 17:22:48","星期一上午看診、星期二上午看診、星期三上午看診、星期四上午看診、星期五上午看診、星期六上午看診、星期日上午看診、星期一下午看診、星期二下午看診、星期三下午看診、星期四下午看診、星期五下午看診、星期六下午看診、星期日下午休診、星期一晚上看診、星期二晚上看診、星期三晚上看診、星期四晚上看診、星期五晚上看診、星期六晚上看診、星期日晚上休診","成人口罩 :: 每天早上   9:00  ~  11:00   隨到隨領  .  兒童無限  .","","","臺北市","信義區","四維里","NNNNNNNNNNNNNYNNNNNNY",121.576905,25.043348
"5901172240","德康大藥局","02 -27272502","台北市信義區松山路541巷21號",150,0,"2020/03/20 17:22:48","星期一上午看診、星期二上午看診、星期三上午看診、星期四上午看診、星期五上午看診、星期六上午看診、星期日上午看診、星期一下午看診、星期二下午看診、星期三下午看診、星期四下午看診、星期五下午看診、星期六下午看診、星期日下午看診、星期一晚上看診、星期二晚上看診、星期三晚上看診、星期四晚上看診、星期五晚上看診、星期六晚上看診、星期日晚上看診","-","","","臺北市","信義區","松光里","NNNNNNNNNNNNNNNNNNNNN",121.578984,25.037942
"5901172268","皇佳大藥局","02 -27269868","台北市信義區松山路541巷19號",0,0,"","星期一上午看診、星期二上午看診、星期三上午看診、星期四上午看診、星期五上午看診、星期六上午看診、星期日上午看診、星期一下午看診、星期二下午看診、星期三下午看診、星期四下午看診、星期五下午看診、星期六下午看診、星期日下午看診、星期一晚上看診、星期二晚上看診、星期三晚上看診、星期四晚上看診、星期五晚上看診、星期六晚上看診、星期日晚上看診","早上8:00發放號碼牌，9:00~21:00領取口罩，逾時作廢","","","臺北市","信義區","松光里","NNNNNNNNNNNNNNNNNNNNN",121.578889,25.037927
"5901172508","好康藥局","02 -27232979","台北市信義區莊敬路414號",0,59,"2020/03/20 17:22:48","星期一上午看診、星期二上午看診、星期三上午看診、星期四上午看診、星期五上午看診、星期六上午看診、星期日上午休診、星期一下午看診、星期二下午看診、星期三下午看診、星期四下午看診、星期五下午看診、星期六下午看診、星期日下午休診、星期一晚上看診、星期二晚上看診、星期三晚上看診、星期四晚上看診、星期五晚上看診、星期六晚上看診、星期日晚上休診","-","","","臺北市","信義區","三張里","NNNNNNYNNNNNNYNNNNNNY",121.566199,25.027157
"5901172544","麗中藥局","02 -27594416","台北市信義區福德街217號",3,261,"2020/03/20 17:22:48","星期一上午看診、星期二上午看診、星期三上午看診、星期四上午看診、星期五上午看診、星期六上午看診、星期日上午看診、星期一下午看診、星期二下午看診、星期三下午看診、星期四下午看診、星期五下午看診、星期六下午看診、星期日下午看診、星期一晚上看診、星期二晚上看診、星期三晚上看診、星期四晚上看診、星期五晚上看診、星期六晚上看診、星期日晚上看診","-","","","臺北市","信義區","中坡里","NNNNNNNNNNNNNNNNNNNNN",121.58474,25.038409
"5901172580","文興藥局","02 -27590989","台北市信義區福德街245號",0,1825,"2020/03/20 17:22:48","星期一上午看診、星期二上午看診、星期三上午看診、星期四上午看診、星期五上午看診、星期六上午看診、星期日上午看診、星期一下午看診、星期二下午看診、星期三下午看診、星期四下午看診、星期五下午看診、星期六下午看診、星期日下午看診、星期一晚上看診、星期二晚上看診、星期三晚上看診、星期四晚上看診、星期五晚上看診、星期六晚上看診、星期日晚上看診","-","","","臺北市","信義區","中行里","NNNNNNYNNNNNNYNNNNNNY",121.585857,25.038739
"5901172651","康杏藥局","02 -27591510","台北市信義區福德街306號1樓",3,654,"2020/03/20 17:22:48","星期一上午看診、星期二上午看診、星期三上午看診、星期四上午看診、星期五上午看診、星期六上午看診、星期日上午看診、星期一下午看診、星期二下午看診、星期三下午看診、星期四下午看診、星期五下午看診、星期六下午看診、星期日下午看診、星期一晚上看診、星期二晚上看診、星期三晚上看診、星期四晚上看診、星期五晚上看診、星期六晚上休診、星期日晚上看診","-","","","臺北市","信義區","中行里","NNNNNNNNNNNNNNNNNNNYN",121.58736,25.039306
"5901172688","昆陽藥局","02 -27274814","台北市信義區林口街230號",0,2113,"2020/03/20 17:22:48","星期一上午看診、星期二上午看診、星期三上午看診、星期四上午看診、星期五上午看診、星期六上午看診、星期日上午休診、星期一下午看診、星期二下午看診、星期三下午看診、星期四下午休診、星期五下午看診、星期六下午看診、星期日下午休診、星期一晚上看診、星期二晚上看診、星期三晚上看診、星期四晚上看診、星期五晚上看診、星期六晚上看診、星期日晚上休診","-","","","臺北市","信義區","大道里","NNNNNNYNNNYNNYNNNNNNY",121.581313,25.04248
"5901172697","綠杏大藥局","02 -27582378","台北市信義區吳興街241號",0,586,"2020/03/20 17:22:48","星期一上午看診、星期二上午看診、星期三上午看診、星期四上午看診、星期五上午看診、星期六上午看診、星期日上午休診、星期一下午看診、星期二下午看診、星期三下午看診、星期四下午看診、星期五下午看診、星期六下午看診、星期日下午休診、星期一晚上看診、星期二晚上看診、星期三晚上看診、星期四晚上看診、星期五晚上看診、星期六晚上休診、星期日晚上休診","每天上午0900販售口罩","","","臺北市","信義區","三張里","NNNNNNYNNNNNNYNNNNNYY",121.563493,25.02745
"5901184106","信康藥局","02 -23961979","臺北市中正區南昌路1段143號",0,285,"2020/03/20 17:22:48","星期一上午看診、星期二上午看診、星期三上午看診、星期四上午看診、星期五上午看診、星期六上午看診、星期日上午看診、星期一下午看診、星期二下午看診、星期三下午看診、星期四下午看診、星期五下午看診、星期六下午看診、星期日下午看診、星期一晚上看診、星期二晚上看診、星期三晚上看診、星期四晚上看診、星期五晚上看診、星期六晚上看診、星期日晚上休診","周一至週日，每日上午10:30及下午2:30，各100人次。現場排隊。","每日14：30開賣","","臺北市","中正區","南福里","NNNNNNNNNNNNNNNNNNNNY",121.518592,25.029532
"5901184142","新三醫藥局","02 -23648180","台北市中正區汀州路3段125號",21,1478,"2020/03/20 17:22:48","星期一上午看診、星期二上午看診、星期三上午看診、星期四上午看診、星期五上午看診、星期六上午休診、星期日上午休診、星期一下午看診、星期二下午看診、星期三下午看診、星期四下午看診、星期五下午看診、星期六下午休診、星期日下午休診、星期一晚上休診、星期二晚上休診、星期三晚上休診、星期四晚上休診、星期五晚上休診、星期六晚上休診、星期日晚上休診","下午2點開始販售同時發放號碼牌，3月27日起不發號碼牌，現場排隊購買","","","臺北市","中正區","文盛里","NNNNNYYNNNNNYYYYYYYYY",121.530505,25.016401
"5901184179","保德中華藥局","02 -23027720","台北市中正區中華路2段159號",129,1308,"2020/03/20 17:22:48","星期一上午看診、星期二上午看診、星期三上午看診、星期四上午看診、星期五上午看診、星期六上午看診、星期日上午看診、星期一下午看診、星期二下午看診、星期三下午看診、星期四下午看診、星期五下午看診、星期六下午看診、星期日下午看診、星期一晚上看診、星期二晚上看診、星期三晚上看診、星期四晚上看診、星期五晚上看診、星期六晚上看診、星期日晚上看診","{口罩} 1330發號碼牌 配售","","","臺北市","中正區","廈安里","NNNNNNNNNNNNNNNNNNNNN",121.50425,25.031013
"5901184213","71恩典藥局","02 -23223371","台北市中正區信義路2段71號",0,1067,"2020/03/20 17:22:48","星期一上午看診、星期二上午看診、星期三上午看診、星期四上午看診、星期五上午看診、星期六上午看診、星期日上午休診、星期一下午看診、星期二下午看診、星期三下午看診、星期四下午看診、星期五下午看診、星期六下午看診、星期日下午休診、星期一晚上看診、星期二晚上看診、星期三晚上看診、星期四晚上看診、星期五晚上看診、星期六晚上休診、星期日晚上休診","-","成人口罩販售時間，週一到五19:30起，週六16:30起，週日及國定假日休。兒童口罩整日可售。","https://www.facebook.com/71gracepharmacy/","臺北市","中正區","文祥里","NNNNNNYNNNNNNYNNNNNYY",121.52641,25.034659
"5901184222","豐仁藥局","02 -23033908","台北市中正區寧波西街161號",0,2415,"2020/03/20 17:22:48","星期一上午看診、星期二上午看診、星期三上午看診、星期四上午看診、星期五上午看診、星期六上午看診、星期日上午休診、星期一下午看診、星期二下午看診、星期三下午看診、星期四下午看診、星期五下午看診、星期六下午看診、星期日下午休診、星期一晚上看診、星期二晚上看診、星期三晚上看診、星期四晚上看診、星期五晚上看診、星期六晚上看診、星期日晚上看診","周一至周六 15:00 / 周日 17:30","","","臺北市","中正區","龍興里","NNNNNNYNNNNNNYNNNNNNN",121.510947,25.027356
"5901184240","立赫健保藥局","02 -33223231","台北市中正區新生南路1段16之2號",0,635,"2020/03/20 17:22:48","星期一上午看診、星期二上午看診、星期三上午看診、星期四上午看診、星期五上午看診、星期六上午看診、星期日上午看診、星期一下午看診、星期二下午看診、星期三下午看診、星期四下午看診、星期五下午看診、星期六下午看診、星期日下午看診、星期一晚上看診、星期二晚上看診、星期三晚上看診、星期四晚上看診、星期五晚上看診、星期六晚上看診、星期日晚上看診","-","","","臺北市","中正區","梅花里","NNNNNNNNNNNNNNNNNNNNN",121.532613,25.043226
"5901184259","汀州健康人生藥局","02 -23688902","台北市中正區汀州路3段211號",0,2175,"2020/03/20 17:22:48","星期一上午看診、星期二上午看診、星期三上午看診、星期四上午看診、星期五上午看診、星期六上午看診、星期日上午看診、星期一下午看診、星期二下午看診、星期三下午看診、星期四下午看診、星期五下午看診、星期六下午看診、星期日下午看診、星期一晚上看診、星期二晚上看診、星期三晚上看診、星期四晚上看診、星期五晚上看診、星期六晚上看診、星期日晚上看診","-","","","臺北市","中正區","水源里","NNNNNNNNNNNNNNNNNNNNN",121.533654,25.0142
"5901193196","青年宏越藥局","02 -23011037","台北市萬華區青年路44號",0,2447,"2020/03/20 17:22:48","星期一上午看診、星期二上午看診、星期三上午看診、星期四上午看診、星期五上午看診、星期六上午看診、星期日上午看診、星期一下午看診、星期二下午看診、星期三下午看診、星期四下午看診、星期五下午看診、星期六下午看診、星期日下午看診、星期一晚上看診、星期二晚上看診、星期三晚上看診、星期四晚上看診、星期五晚上看診、星期六晚上看診、星期日晚上看診","口罩發放下午2:30-5:30，其餘時間不販售，現場排隊，3/4公休","","","臺北市","萬華區","新和里","NNNNNNNNNNNNNNNNNNNNN",121.504164,25.025504
"5901193221","正盛藥局","02 -23050386","台北市萬華區中華路2段434－1號",0,635,"2020/03/20 17:22:48","星期一上午看診、星期二上午看診、星期三上午看診、星期四上午看診、星期五上午看診、星期六上午看診、星期日上午看診、星期一下午看診、星期二下午看診、星期三下午看診、星期四下午看診、星期五下午看診、星期六下午看診、星期日下午休診、星期一晚上看診、星期二晚上看診、星期三晚上看診、星期四晚上看診、星期五晚上看診、星期六晚上看診、星期日晚上休診","-","","","臺北市","萬華區","新和里","NNNNNNNNNNNNNYNNNNNNY",121.5064,25.027077
"5901193230","啟仁藥局","02 -23362771","台北市萬華區環河南路2段177號",0,1214,"2020/03/20 17:22:48","星期一上午看診、星期二上午看診、星期三上午看診、星期四上午看診、星期五上午看診、星期六上午看診、星期日上午看診、星期一下午看診、星期二下午看診、星期三下午看診、星期四下午看診、星期五下午看診、星期六下午看診、星期日下午看診、星期一晚上看診、星期二晚上看診、星期三晚上看診、星期四晚上看診、星期五晚上看診、星期六晚上看診、星期日晚上看診","3月8號休息不販售口罩","號碼牌晚上
7點以前回來否則就成後補

;","","臺北市","萬華區","綠堤里","NNNNNNNNNNNNNNNNNNNNN",121.492039,25.032593
"5901193249","光華藥局","02 -23613609","台北市萬華區華西街19－5號",0,2133,"2020/03/20 17:22:48","星期一上午看診、星期二上午看診、星期三上午看診、星期四上午看診、星期五上午看診、星期六上午看診、星期日上午看診、星期一下午看診、星期二下午看診、星期三下午看診、星期四下午看診、星期五下午看診、星期六下午看診、星期日下午看診、星期一晚上看診、星期二晚上看診、星期三晚上看診、星期四晚上看診、星期五晚上看診、星期六晚上看診、星期日晚上看診","-","","","臺北市","萬華區","青山里","NNNNNNYNNNNNNNNNNNNNN",121.498545,25.038917
"5901200070","裕康藥局","02 -22367756","台北市文山區木柵路1段12號",0,616,"2020/03/20 17:22:48","星期一上午看診、星期二上午看診、星期三上午看診、星期四上午看診、星期五上午看診、星期六上午休診、星期日上午休診、星期一下午看診、星期二下午看診、星期三下午看診、星期四下午看診、星期五下午看診、星期六下午休診、星期日下午休診、星期一晚上看診、星期二晚上看診、星期三晚上看診、星期四晚上看診、星期五晚上看診、星期六晚上休診、星期日晚上休診","-","","","臺北市","文山區","試院里","NNNNNNYNNNNNNYNNNNNNY",121.546206,24.986678
"5901200105","建興藥局","02 -29399993","台北市文山區木柵路2段81號1樓",0,271,"2020/03/20 17:22:48","星期一上午看診、星期二上午看診、星期三上午看診、星期四上午看診、星期五上午看診、星期六上午看診、星期日上午休診、星期一下午看診、星期二下午看診、星期三下午看診、星期四下午看診、星期五下午看診、星期六下午看診、星期日下午休診、星期一晚上看診、星期二晚上看診、星期三晚上看診、星期四晚上看診、星期五晚上看診、星期六晚上看診、星期日晚上休診","-","","","臺北市","文山區","明興里","NNNNNNYNNNNNNYNNNNNNY",121.56097,24.988889
"5901200114","健群藥局","02 -29328898","台北市文山區景興路41號",24,785,"2020/03/20 17:22:48","星期一上午看診、星期二上午看診、星期三上午看診、星期四上午看診、星期五上午看診、星期六上午看診、星期日上午休診、星期一下午看診、星期二下午看診、星期三下午看診、星期四下午看診、星期五下午看診、星期六下午看診、星期日下午休診、星期一晚上看診、星期二晚上看診、星期三晚上看診、星期四晚上看診、星期五晚上看診、星期六晚上看診、星期日晚上休診","-","早上8點發放號碼牌並開放購買，最遲可於晚間8點前領取。","","臺北市","文山區","興福里","NNNNNNYNNNNNNYNNNNNNY",121.544838,24.997172
"5901200123","瑞安藥局","02 -29312888","台北市文山區溪口街69－1號1樓",7,1172,"2020/03/20 17:22:48","星期一上午看診、星期二上午看診、星期三上午看診、星期四上午看診、星期五上午看診、星期六上午看診、星期日上午休診、星期一下午看診、星期二下午看診、星期三下午看診、星期四下午看診、星期五下午看診、星期六下午看診、星期日下午看診、星期一晚上看診、星期二晚上看診、星期三晚上看診、星期四晚上看診、星期五晚上看診、星期六晚上看診、星期日晚上看診","-","","","臺北市","文山區","景慶里","NNNNNNYNNNNNNNNNNNNNN",121.539341,24.99512
"5901200141","景美藥局","02 -29335741","台北市文山區景文街125號",0,40,"2020/03/20 17:22:48","星期一上午看診、星期二上午看診、星期三上午看診、星期四上午看診、星期五上午看診、星期六上午看診、星期日上午看診、星期一下午看診、星期二下午看診、星期三下午看診、星期四下午看診、星期五下午看診、星期六下午看診、星期日下午看診、星期一晚上看診、星期二晚上看診、星期三晚上看診、星期四晚上看診、星期五晚上看診、星期六晚上看診、星期日晚上看診","-","","","臺北市","文山區","景行里","NNNNNNNNNNNNNNNNNNNNN",121.541192,24.990331
"5901200187","全銨藥局","02 -29370689","台北市文山區木新路3段349號1樓",0,105,"2020/03/20 17:22:48","星期一上午看診、星期二上午看診、星期三上午看診、星期四上午看診、星期五上午看診、星期六上午看診、星期日上午休診、星期一下午看診、星期二下午看診、星期三下午看診、星期四下午看診、星期五下午看診、星期六下午休診、星期日下午休診、星期一晚上看診、星期二晚上看診、星期三晚上看診、星期四晚上看診、星期五晚上看診、星期六晚上休診、星期日晚上休診","4/2、4/3、4/4半天","","","臺北市","文山區","樟新里","NNNNNNYNNNNNYYNNNNNYY",121.555821,24.980345
"5902022801","裕康中西大藥局","07 -5555352","高雄市鼓山區裕誠路1519號",0,2677,"2020/03/20 17:22:48","星期一上午看診、星期二上午看診、星期三上午看診、星期四上午看診、星期五上午看診、星期六上午看診、星期日上午看診、星期一下午休診、星期二下午休診、星期三下午休診、星期四下午休診、星期五下午休診、星期六下午休診、星期日下午休診、星期一晚上看診、星期二晚上看診、星期三晚上看診、星期四晚上看診、星期五晚上看診、星期六晚上休診、星期日晚上休診","藥局販售口罩時間，依藥局門口公告時間為主(售完為止)","","","高雄市","鼓山區","明誠里","NNNNNNNYYYYYYYNNNNNYY",120.295117,22.664792
"5902022829","弘興藥局","07 -5612677","高雄市鼓山區鼓山三路48－11號",0,59,"2020/03/20 17:22:48","星期一上午看診、星期二上午看診、星期三上午看診、星期四上午看診、星期五上午看診、星期六上午看診、星期日上午看診、星期一下午看診、星期二下午看診、星期三下午看診、星期四下午看診、星期五下午看診、星期六下午看診、星期日下午看診、星期一晚上看診、星期二晚上看診、星期三晚上看診、星期四晚上看診、星期五晚上看診、星期六晚上看診、星期日晚上看診","週一到週日早上8:15開始發售，並依序販售口罩，售完為止","","","高雄市","鼓山區","忠正里","NNNNNNNNNNNNNNNNNNNNN",120.275708,22.654681
"5902022874","康爾喜藥局","07 -5222650","高雄市鼓山區慶豐街50號",0,1124,"2020/03/20 17:22:48","星期一上午看診、星期二上午看診、星期三上午看診、星期四上午看診、星期五上午看診、星期六上午看診、星期日上午休診、星期一下午看診、星期二下午看診、星期三下午看診、星期四下午看診、星期五下午看診、星期六下午看診、星期日下午休診、星期一晚上看診、星期二晚上看診、星期三晚上看診、星期四晚上看診、星期五晚上看診、星期六晚上看診、星期日晚上休診","早上10點開始販售口罩(13:00-15:00休息)，營業時間為早上9:10至晚間10:00","","","高雄市","鼓山區","裕豐里","NNNNNNYNNNNNNYNNNNNNY",120.293466,22.666473
"5902022892","大有藥局","07 -5529402","高雄市鼓山區文信路236號",0,1855,"2020/03/20 17:22:48","星期一上午看診、星期二上午看診、星期三上午看診、星期四上午看診、星期五上午看診、星期六上午看診、星期日上午看診、星期一下午看診、星期二下午看診、星期三下午看診、星期四下午看診、星期五下午看診、星期六下午看診、星期日下午休診、星期一晚上看診、星期二晚上看診、星期三晚上看診、星期四晚上看診、星期五晚上看診、星期六晚上看診、星期日晚上看診","星期一~六：口罩代售時間自15:00~21:00；現場排隊。星期日：口罩代售時間自09:00~11:50，18:00~21:00；現場排隊。","","","高雄市","鼓山區","明誠里","NNNNNNNNNNNNNYNNNNNNN",120.300438,22.664706
"5902022972","高雄藥局","07 -5610031","高雄市鼓山區九如四路924號",180,1490,"2020/03/20 17:22:48","星期一上午看診、星期二上午看診、星期三上午看診、星期四上午看診、星期五上午看診、星期六上午看診、星期日上午休診、星期一下午看診、星期二下午看診、星期三下午看診、星期四下午看診、星期五下午看診、星期六下午看診、星期日下午休診、星期一晚上看診、星期二晚上看診、星期三晚上看診、星期四晚上看診、星期五晚上看診、星期六晚上看診、星期日晚上休診","賣口罩時間為週一週六中午12點，售完為止","","","高雄市","鼓山區","民強里","NNNNNNYNNNNNNYNNNNNNY",120.27929,22.654661
"5902030063","紅心藥局","07 -3416697","高雄市左營區崇德路255號",0,0,"","星期一上午看診、星期二上午看診、星期三上午看診、星期四上午看診、星期五上午看診、星期六上午看診、星期日上午看診、星期一下午看診、星期二下午看診、星期三下午看診、星期四下午看診、星期五下午看診、星期六下午看診、星期日下午看診、星期一晚上看診、星期二晚上看診、星期三晚上看診、星期四晚上看診、星期五晚上看診、星期六晚上看診、星期日晚上看診","早上0830賣口罩，賣完止","","","高雄市","左營區","新光里","NNNNNNNNNNNNNNNNNNNNN",120.30412,22.675352
"5902030090","宏仁藥局","07 -5817895","高雄市左營區左營大路390號",0,215,"2020/03/20 17:22:48","星期一上午看診、星期二上午看診、星期三上午看診、星期四上午看診、星期五上午看診、星期六上午看診、星期日上午看診、星期一下午看診、星期二下午看診、星期三下午看診、星期四下午看診、星期五下午看診、星期六下午看診、星期日下午看診、星期一晚上看診、星期二晚上看診、星期三晚上看診、星期四晚上看診、星期五晚上看診、星期六晚上看診、星期日晚上看診","口罩代售時間自8:30開始，現場排隊。","","","高雄市","左營區","中北里","NNNNNNNNNNNNNNNNNNNNN",120.293207,22.687017
"5901172704","鴻濟藥局","02 -27645331","台北市信義區永吉路326巷2號1樓",0,1520,"2020/03/20 17:22:48","星期一上午看診、星期二上午看診、星期三上午看診、星期四上午看診、星期五上午看診、星期六上午看診、星期日上午看診、星期一下午看診、星期二下午看診、星期三下午看診、星期四下午看診、星期五下午看診、星期六下午看診、星期日下午看診、星期一晚上看診、星期二晚上看診、星期三晚上看診、星期四晚上看診、星期五晚上看診、星期六晚上看診、星期日晚上看診","-","","","臺北市","信義區","五全里","NNNNNNNNNNNNNNNNNNNNN",121.575391,25.045069
"5901172740","信桉藥局","02 -87860005","台北市信義區莊敬路236號",0,253,"2020/03/20 17:22:48","星期一上午看診、星期二上午看診、星期三上午看診、星期四上午看診、星期五上午看診、星期六上午休診、星期日上午休診、星期一下午看診、星期二下午看診、星期三下午看診、星期四下午看診、星期五下午看診、星期六下午休診、星期日下午休診、星期一晚上看診、星期二晚上看診、星期三晚上看診、星期四晚上看診、星期五晚上看診、星期六晚上休診、星期日晚上休診","口罩購買 14:00(W1-W5)","","","臺北市","信義區","景新里","NNNNNYYNNNNNYYNNNNNYY",121.562088,25.029598
"5901172786","安佑藥局","02 -27222236","台北市信義區吳興街247號1樓",0,813,"2020/03/20 17:22:48","星期一上午看診、星期二上午看診、星期三上午看診、星期四上午看診、星期五上午看診、星期六上午看診、星期日上午看診、星期一下午看診、星期二下午看診、星期三下午看診、星期四下午看診、星期五下午看診、星期六下午看診、星期日下午看診、星期一晚上看診、星期二晚上看診、星期三晚上看診、星期四晚上看診、星期五晚上看診、星期六晚上看診、星期日晚上看診","-","","","臺北市","信義區","三張里","NNNNNNNNNNNNNNNNNNNNN",121.56359,25.027331
"5901172820","安心藥局","02 -27474992","台北市信義區永吉路30巷148弄4之1號",0,292,"2020/03/20 17:22:48","星期一上午看診、星期二上午看診、星期三上午看診、星期四上午看診、星期五上午看診、星期六上午看診、星期日上午休診、星期一下午看診、星期二下午看診、星期三下午看診、星期四下午看診、星期五下午看診、星期六下午休診、星期日下午休診、星期一晚上看診、星期二晚上看診、星期三晚上看診、星期四晚上看診、星期五晚上看診、星期六晚上休診、星期日晚上休診","口罩代售時間14:00-15:00 現場排隊","","","臺北市","信義區","興雅里","NNNNNNYNNNNNYYNNNNNYY",121.568544,25.042658
"5901172839","九州藥局","02 -87323331","台北市信義區和平東路3段239號",0,1778,"2020/03/20 17:22:48","星期一上午看診、星期二上午看診、星期三上午看診、星期四上午看診、星期五上午看診、星期六上午看診、星期日上午看診、星期一下午看診、星期二下午看診、星期三下午看診、星期四下午看診、星期五下午看診、星期六下午看診、星期日下午看診、星期一晚上看診、星期二晚上看診、星期三晚上看診、星期四晚上看診、星期五晚上看診、星期六晚上看診、星期日晚上看診","-","","","臺北市","信義區","黎平里","NNNNNNNNNNNNNNNNNNNNN",121.554315,25.022936
"5901172857","永吉藥局","02 -87874043","台北市信義區永吉路213號",4,2522,"2020/03/20 17:22:48","星期一上午看診、星期二上午看診、星期三上午看診、星期四上午看診、星期五上午看診、星期六上午休診、星期日上午休診、星期一下午休診、星期二下午休診、星期三下午休診、星期四下午休診、星期五下午休診、星期六下午休診、星期日下午休診、星期一晚上看診、星期二晚上看診、星期三晚上看診、星期四晚上看診、星期五晚上看診、星期六晚上休診、星期日晚上休診","口罩代售:週一至週五，下午1:00~3:00，現場排領。不發號碼牌。","","","臺北市","信義區","五常里","NNNNNYYYYYYYYYYYYYYYY",121.573872,25.045715
"5901172924","松仁藥局","02 -27238626","台北市信義區松仁路233號",0,1245,"2020/03/20 17:22:48","星期一上午看診、星期二上午看診、星期三上午看診、星期四上午看診、星期五上午看診、星期六上午看診、星期日上午看診、星期一下午看診、星期二下午看診、星期三下午看診、星期四下午看診、星期五下午看診、星期六下午看診、星期日下午看診、星期一晚上看診、星期二晚上看診、星期三晚上看診、星期四晚上看診、星期五晚上看診、星期六晚上看診、星期日晚上看診","口罩販售時段:下午13:30開始售完為止","","","臺北市","信義區","三犁里","NNNNNNNNNNNNNNNNNNNNN",121.568769,25.026174
"5901172933","喜樂藥局","02 -27275797","台北市信義區松德路125號",0,70,"2020/03/20 17:22:48","星期一上午看診、星期二上午看診、星期三上午看診、星期四上午看診、星期五上午看診、星期六上午看診、星期日上午休診、星期一下午看診、星期二下午看診、星期三下午看診、星期四下午看診、星期五下午看診、星期六下午看診、星期日下午休診、星期一晚上看診、星期二晚上看診、星期三晚上看診、星期四晚上看診、星期五晚上看診、星期六晚上休診、星期日晚上休診","口罩代售自10：00號碼牌發放自09：00或排隊人次超過70人次提前發放號碼牌","","","臺北市","信義區","國業里","NNNNNNYNNNNNNYNNNNNYY",121.575287,25.037516
"5901010058","安郁藥局","02 -25774551","台北市松山區八德路3段12巷51弄16號1樓",0,2071,"2020/03/20 17:22:48","星期一上午看診、星期二上午看診、星期三上午看診、星期四上午看診、星期五上午看診、星期六上午看診、星期日上午休診、星期一下午看診、星期二下午看診、星期三下午看診、星期四下午看診、星期五下午看診、星期六下午看診、星期日下午休診、星期一晚上看診、星期二晚上看診、星期三晚上看診、星期四晚上看診、星期五晚上看診、星期六晚上休診、星期日晚上休診","口罩販售時段:週一至六早上10點(10點開始發號碼牌發完為止) ★週日休息                             清明節4/04-4/05休息","","","臺北市","松山區","敦化里","NNNNNNYNNNNNNYNNNNNNY",121.551182,25.046086
"5901010076","榮星藥局","02 -27124696","台北市松山區南京東路4段133巷5弄1號",0,0,"","星期一上午看診、星期二上午看診、星期三上午看診、星期四上午看診、星期五上午看診、星期六上午看診、星期日上午看診、星期一下午看診、星期二下午看診、星期三下午看診、星期四下午看診、星期五下午看診、星期六下午看診、星期日下午看診、星期一晚上看診、星期二晚上看診、星期三晚上看診、星期四晚上看診、星期五晚上看診、星期六晚上看診、星期日晚上看診","星期日休息不發放口罩","","","臺北市","松山區","東勢里","NNNNNNYNNNNNNYNNNNNNY",121.555235,25.052137
"5901010085","安世藥局","02 -27133405","台北市松山區南京東路4段133巷5弄9號",1,478,"2020/03/20 17:22:48","星期一上午看診、星期二上午看診、星期三上午看診、星期四上午看診、星期五上午看診、星期六上午看診、星期日上午看診、星期一下午看診、星期二下午看診、星期三下午看診、星期四下午看診、星期五下午看診、星期六下午看診、星期日下午看診、星期一晚上看診、星期二晚上看診、星期三晚上看診、星期四晚上看診、星期五晚上看診、星期六晚上看診、星期日晚上看診","上午9:00~晚上10:00 口罩代售自上午9:00起;現場排隊","","","臺北市","松山區","東勢里","NNNNNNNNNNNNNNNNNNNNN",121.555562,25.05214
"5901010094","明一藥局","02 -27691654","台北市松山區南京東路5段59巷28弄25號1樓",0,747,"2020/03/20 17:22:48","星期一上午看診、星期二上午看診、星期三上午看診、星期四上午看診、星期五上午看診、星期六上午看診、星期日上午休診、星期一下午看診、星期二下午看診、星期三下午看診、星期四下午看診、星期五下午看診、星期六下午看診、星期日下午休診、星期一晚上看診、星期二晚上看診、星期三晚上看診、星期四晚上看診、星期五晚上看診、星期六晚上看診、星期日晚上休診","-","","","臺北市","松山區","東光里","NNNNNNYNNNNNNYNNNNNYY",121.558168,25.052704
"5901010165","傑安藥局","02 -27524155","台北市松山區八德路2段437巷7弄8號1樓",0,734,"2020/03/20 17:22:48","星期一上午看診、星期二上午看診、星期三上午看診、星期四上午看診、星期五上午看診、星期六上午休診、星期日上午看診、星期一下午看診、星期二下午看診、星期三下午看診、星期四下午看診、星期五下午看診、星期六下午休診、星期日下午看診、星期一晚上看診、星期二晚上看診、星期三晚上看診、星期四晚上看診、星期五晚上看診、星期六晚上休診、星期日晚上看診","9:30開始發號碼牌","","","臺北市","松山區","中正里","NNNNNYNNNNNNYNNNNNNYN",121.547337,25.049139
"5901010174","仁弘藥局","02 -27136764","台北市松山區民生東路3段113巷25弄6號1樓",84,860,"2020/03/20 17:22:48","星期一上午看診、星期二上午看診、星期三上午看診、星期四上午看診、星期五上午看診、星期六上午看診、星期日上午看診、星期一下午看診、星期二下午看診、星期三下午看診、星期四下午看診、星期五下午看診、星期六下午看診、星期日下午看診、星期一晚上看診、星期二晚上看診、星期三晚上看診、星期四晚上看診、星期五晚上看診、星期六晚上看診、星期日晚上看診","每日下午四點開始發放口罩.星期日休息","","","臺北市","松山區","民有里","NNNNNNYNNNNNNYNNNNNNY",121.546586,25.059485
"5901010192","益華藥局","02 -27624898","台北市松山區民生東路5段138巷6號",0,234,"2020/03/20 17:22:48","星期一上午看診、星期二上午看診、星期三上午看診、星期四上午看診、星期五上午看診、星期六上午看診、星期日上午看診、星期一下午看診、星期二下午看診、星期三下午看診、星期四下午看診、星期五下午看診、星期六下午看診、星期日下午看診、星期一晚上看診、星期二晚上看診、星期三晚上看診、星期四晚上看診、星期五晚上看診、星期六晚上看診、星期日晚上看診","-","","","臺北市","松山區","介壽里","NNNNNNNNNNNNNNNNNNNNN",121.561546,25.058274
"5901010272","德靈藥局","02 -27646998","台北市松山區富錦街548號",0,1585,"2020/03/20 17:22:48","星期一上午看診、星期二上午看診、星期三上午看診、星期四上午看診、星期五上午看診、星期六上午看診、星期日上午休診、星期一下午看診、星期二下午看診、星期三下午看診、星期四下午看診、星期五下午看診、星期六下午看診、星期日下午休診、星期一晚上看診、星期二晚上看診、星期三晚上看診、星期四晚上看診、星期五晚上看診、星期六晚上看診、星期日晚上休診","節期間2/4-2/10休息. .","","","臺北市","松山區","新益里","NNNNNNYNNNNNNYNNNNNNY",121.566673,25.061775
"5901010290","健全藥局","02 -27128293","台北市松山區民權東路3段103巷20號",0,1131,"2020/03/20 17:22:48","星期一上午看診、星期二上午看診、星期三上午看診、星期四上午看診、星期五上午看診、星期六上午看診、星期日上午看診、星期一下午看診、星期二下午看診、星期三下午看診、星期四下午看診、星期五下午看診、星期六下午看診、星期日下午看診、星期一晚上看診、星期二晚上看診、星期三晚上看診、星期四晚上看診、星期五晚上看診、星期六晚上看診、星期日晚上看診","-","","","臺北市","松山區","民福里","NNNNNNNNNNNNNNNNNNNNN",121.544911,25.063269
"5901010496","瑞昌大藥局","02 -27151881","台北市松山區民權東路3段103巷10號",0,1304,"2020/03/20 17:22:48","星期一上午看診、星期二上午看診、星期三上午看診、星期四上午看診、星期五上午看診、星期六上午看診、星期日上午看診、星期一下午看診、星期二下午看診、星期三下午看診、星期四下午看診、星期五下午看診、星期六下午看診、星期日下午休診、星期一晚上看診、星期二晚上看診、星期三晚上看診、星期四晚上看診、星期五晚上看診、星期六晚上看診、星期日晚上休診","-","","","臺北市","松山區","民福里","NNNNNNNNNNNNNYNNNNNNY",121.544918,25.062984
"5901010576","合生藥局","02 -27602932","台北市松山區南京東路5段123巷45號1樓",0,16,"2020/03/20 17:22:48","星期一上午看診、星期二上午看診、星期三上午看診、星期四上午看診、星期五上午看診、星期六上午看診、星期日上午休診、星期一下午看診、星期二下午看診、星期三下午看診、星期四下午看診、星期五下午看診、星期六下午看診、星期日下午休診、星期一晚上看診、星期二晚上看診、星期三晚上看診、星期四晚上看診、星期五晚上看診、星期六晚上看診、星期日晚上看診","口罩發放: 3/2起 早上8:50現場排隊領號碼牌 ，請勿離場 ，同時領回口罩 ，  ; 週日店休","修改資訊","","臺北市","松山區","東光里","NNNNNNYNNNNNNYNNNNNNN",121.560748,25.053638
"5901011662","上允藥局","02 -27696905","台北市松山區民生東路5段78號",0,2407,"2020/03/20 17:22:48","星期一上午看診、星期二上午看診、星期三上午看診、星期四上午看診、星期五上午看診、星期六上午看診、星期日上午休診、星期一下午看診、星期二下午看診、星期三下午看診、星期四下午看診、星期五下午看診、星期六下午休診、星期日下午休診、星期一晚上看診、星期二晚上看診、星期三晚上看診、星期四晚上看診、星期五晚上看診、星期六晚上看診、星期日晚上休診","-","","","臺北市","松山區","介壽里","NNNNNNYNNNNNYYNNNNNNY",121.559049,25.058364
"5901013095","康采藥局","02 -27670271","台北市松山區南京東路5段291巷17－2號",0,660,"2020/03/20 17:22:48","星期一上午看診、星期二上午看診、星期三上午看診、星期四上午看診、星期五上午看診、星期六上午看診、星期日上午看診、星期一下午看診、星期二下午看診、星期三下午看診、星期四下午看診、星期五下午看診、星期六下午看診、星期日下午看診、星期一晚上看診、星期二晚上看診、星期三晚上看診、星期四晚上看診、星期五晚上看診、星期六晚上看診、星期日晚上休診","防疫口罩販賣時間每天下午4點..周日中午12點..若沒販售完的口罩也是下午4點後才一起賣..3/7，3/8人力不足暫停販售2日","","","臺北市","松山區","安平里","NNNNNNNNNNNNNNNNNNNNY",121.566253,25.052363
"5901013120","誠康中西藥局","02 -27619679","台北市松山區南京東路5段59巷31弄43號",0,750,"2020/03/20 17:22:48","星期一上午看診、星期二上午看診、星期三上午看診、星期四上午看診、星期五上午看診、星期六上午看診、星期日上午休診、星期一下午看診、星期二下午看診、星期三下午看診、星期四下午看診、星期五下午看診、星期六下午看診、星期日下午休診、星期一晚上看診、星期二晚上看診、星期三晚上看診、星期四晚上看診、星期五晚上看診、星期六晚上看診、星期日晚上休診","口罩發放方式:每日一次 早上8:00發放號碼牌 領牌後需在晚上9:30打烊前回來過卡 完成上傳","","","臺北市","松山區","東光里","NNNNNNYNNNNNNYNNNNNNY",121.560723,25.053458
"5901013139","慶昌藥局","02 -25770820","台北市松山區延吉街29號",0,1042,"2020/03/20 17:22:48","星期一上午看診、星期二上午看診、星期三上午看診、星期四上午看診、星期五上午看診、星期六上午看診、星期日上午看診、星期一下午看診、星期二下午看診、星期三下午看診、星期四下午看診、星期五下午看診、星期六下午看診、星期日下午看診、星期一晚上看診、星期二晚上看診、星期三晚上看診、星期四晚上看診、星期五晚上看診、星期六晚上看診、星期日晚上看診","-","","","臺北市","松山區","吉仁里","NNNNNNNNNNNNNNNNNNNNN",121.553706,25.045949
"5901013148","唯康藥局","02 -25775000","台北市松山區八德路3段211號",0,1201,"2020/03/20 17:22:48","星期一上午看診、星期二上午看診、星期三上午看診、星期四上午看診、星期五上午看診、星期六上午看診、星期日上午看診、星期一下午看診、星期二下午看診、星期三下午看診、星期四下午看診、星期五下午看診、星期六下午看診、星期日下午看診、星期一晚上看診、星期二晚上看診、星期三晚上看診、星期四晚上看診、星期五晚上看診、星期六晚上看診、星期日晚上休診","2/17 開始晚上7:30 發放 禮拜一到禮拜五 禮拜六禮拜日無人力發口罩 隔壁兩間診所現場處方簽 還有慢簽","","","臺北市","松山區","復勢里","NNNNNNNNNNNNNNNNNNNNY",121.556637,25.048196
"5901013157","西松健康人生藥局","   -","",0,6,"2020/03/20 17:22:48","","無特定","","","","","","",121.566247,25.052005
"5901013175","台北長庚維康藥局","02 -27199386","台北市松山區敦化北路199巷2弄1號",0,491,"2020/03/20 17:22:48","星期一上午看診、星期二上午看診、星期三上午看診、星期四上午看診、星期五上午看診、星期六上午休診、星期日上午休診、星期一下午看診、星期二下午看診、星期三下午看診、星期四下午看診、星期五下午看診、星期六下午休診、星期日下午休診、星期一晚上看診、星期二晚上看診、星期三晚上看診、星期四晚上看診、星期五晚上看診、星期六晚上休診、星期日晚上休診","-","","","臺北市","松山區","中華里","NNNNNYYNNNNNYYNNNNNYY",121.550039,25.055737
"5901013200","專品南京藥局","02 -25147685","台北市松山區南京東路4段73號",0,1200,"2020/03/20 17:22:48","星期一上午看診、星期二上午看診、星期三上午看診、星期四上午看診、星期五上午看診、星期六上午看診、星期日上午看診、星期一下午看診、星期二下午看診、星期三下午看診、星期四下午看診、星期五下午看診、星期六下午看診、星期日下午看診、星期一晚上看診、星期二晚上看診、星期三晚上看診、星期四晚上看診、星期五晚上看診、星期六晚上看診、星期日晚上看診","-","","","臺北市","松山區","東勢里","NNNNNNNNNNNNNNNNNNNNN",121.553167,25.051846
"5901013246","芝欣藥局","02 -25706677","台北市松山區八德路3段148號",0,892,"2020/03/20 17:22:48","星期一上午看診、星期二上午看診、星期三上午看診、星期四上午看診、星期五上午看診、星期六上午看診、星期日上午看診、星期一下午看診、星期二下午看診、星期三下午看診、星期四下午看診、星期五下午看診、星期六下午看診、星期日下午看診、星期一晚上看診、星期二晚上看診、星期三晚上看診、星期四晚上看診、星期五晚上看診、星期六晚上看診、星期日晚上看診","成人口罩代售時間為19點開始發放，沒有號碼牌現場排隊，當天未售完口罩第二天仍為晚上開始 兒童口罩直接領取","","","臺北市","松山區","復源里","NNNNNNYNNNNNNYNNNNNNY",121.554815,25.047992
"5901013264","佑翔藥局","02 -87875070","台北市松山區民生東路5段95號",0,3239,"2020/03/20 17:22:48","星期一上午看診、星期二上午看診、星期三上午看診、星期四上午休診、星期五上午看診、星期六上午看診、星期日上午休診、星期一下午看診、星期二下午看診、星期三下午休診、星期四下午看診、星期五下午休診、星期六下午看診、星期日下午休診、星期一晚上看診、星期二晚上休診、星期三晚上休診、星期四晚上看診、星期五晚上休診、星期六晚上休診、星期日晚上休診","口罩販售時間: 每週一，二，四，六。下午2點-4點。　每週三，五。上午9點-11點。","","","臺北市","松山區","東榮里","NNNYNNYNNYNYNYNYYNYYY",121.55969,25.058805
"5901013308","立赫敦北藥局","02 -27199277","台北市松山區敦化北路222巷20號",0,908,"2020/03/20 17:22:48","星期一上午看診、星期二上午看診、星期三上午看診、星期四上午看診、星期五上午看診、星期六上午看診、星期日上午看診、星期一下午看診、星期二下午看診、星期三下午看診、星期四下午看診、星期五下午看診、星期六下午看診、星期日下午看診、星期一晚上看診、星期二晚上看診、星期三晚上看診、星期四晚上看診、星期五晚上看診、星期六晚上看診、星期日晚上休診","-","","","臺北市","松山區","民有里","NNNNNNNNNNNNNNNNNNNNY",121.547743,25.059447
"5901013326","富景藥局","02 -27455666","台北市松山區三民路145號",0,61,"2020/03/20 17:22:48","星期一上午看診、星期二上午看診、星期三上午看診、星期四上午看診、星期五上午看診、星期六上午看診、星期日上午看診、星期一下午看診、星期二下午看診、星期三下午看診、星期四下午看診、星期五下午看診、星期六下午看診、星期日下午看診、星期一晚上看診、星期二晚上看診、星期三晚上看診、星期四晚上看診、星期五晚上看診、星期六晚上看診、星期日晚上看診","-","","","臺北市","松山區","三民里","NNNNNNNNNNNNNNNNNNNNN",121.563097,25.060785
"5901013344","健康活力藥師藥局","02 -27455556","台北市松山區民生東路5段219號",0,1610,"2020/03/20 17:22:48","星期一上午看診、星期二上午看診、星期三上午看診、星期四上午看診、星期五上午看診、星期六上午看診、星期日上午看診、星期一下午看診、星期二下午看診、星期三下午看診、星期四下午看診、星期五下午看診、星期六下午看診、星期日下午看診、星期一晚上看診、星期二晚上看診、星期三晚上看診、星期四晚上看診、星期五晚上看診、星期六晚上看診、星期日晚上看診","-","","","臺北市","松山區","新東里","NNNNNNNNNNNNNNNNNNNNN",121.56693,25.05931
"5901013362","啄木鳥藥局","02 -27422413","台北市松山區八德路4段209號、211號（1、2層）",0,65,"2020/03/20 17:22:48","星期一上午看診、星期二上午看診、星期三上午看診、星期四上午看診、星期五上午看診、星期六上午看診、星期日上午看診、星期一下午看診、星期二下午看診、星期三下午看診、星期四下午看診、星期五下午看診、星期六下午看診、星期日下午看診、星期一晚上看診、星期二晚上看診、星期三晚上看診、星期四晚上看診、星期五晚上看診、星期六晚上看診、星期日晚上看診","-","","","臺北市","松山區","吉祥里","NNNNNNNNNNNNNNNNNNNNN",121.563957,25.048937
"5901013371","玖田藥局","02 -27666578","台北市松山區八德路4段655號",0,2899,"2020/03/20 17:22:48","星期一上午看診、星期二上午看診、星期三上午看診、星期四上午看診、星期五上午看診、星期六上午看診、星期日上午看診、星期一下午看診、星期二下午看診、星期三下午看診、星期四下午看診、星期五下午看診、星期六下午看診、星期日下午看診、星期一晚上看診、星期二晚上看診、星期三晚上看診、星期四晚上看診、星期五晚上看診、星期六晚上看診、星期日晚上看診","政府防疫口罩每日下午13:30開始販售(以到場先後順序為準，售完為止)","","","臺北市","松山區","慈祐里","NNNNNNNNNNNNNNNNNNNNN",121.575529,25.050178
"5901013380","澄馨藥局","02 -27420159","台北市松山區三民路37號",0,1034,"2020/03/20 17:22:48","星期一上午看診、星期二上午看診、星期三上午看診、星期四上午看診、星期五上午看診、星期六上午看診、星期日上午休診、星期一下午看診、星期二下午看診、星期三下午看診、星期四下午看診、星期五下午看診、星期六下午休診、星期日下午看診、星期一晚上看診、星期二晚上看診、星期三晚上看診、星期四晚上看診、星期五晚上看診、星期六晚上休診、星期日晚上看診","口罩販賣時間:週一~週六8:30領號碼牌;9:30領口罩。週日15:00領號碼牌;16:00開始領口罩。","","","臺北市","松山區","自強里","NNNNNNYNNNNNYNNNNNNYN",121.563524,25.055801
"5901013399","一安正昇藥局","02 -27680993","台北市松山區南京東路5段348號",0,1767,"2020/03/20 17:22:48","星期一上午看診、星期二上午看診、星期三上午看診、星期四上午看診、星期五上午看診、星期六上午看診、星期日上午看診、星期一下午看診、星期二下午看診、星期三下午看診、星期四下午看診、星期五下午看診、星期六下午看診、星期日下午看診、星期一晚上看診、星期二晚上看診、星期三晚上看診、星期四晚上看診、星期五晚上看診、星期六晚上看診、星期日晚上看診","下午1500開始販售口罩","","","臺北市","松山區","新聚里","NNNNNNNNNNNNNNNNNNNNN",121.569309,25.051077
"5901013406","美優康藥局","02 -27152319","台北市松山區民生東路4段117之1號",0,1211,"2020/03/20 17:22:48","星期一上午看診、星期二上午看診、星期三上午看診、星期四上午看診、星期五上午看診、星期六上午看診、星期日上午休診、星期一下午看診、星期二下午看診、星期三下午看診、星期四下午看診、星期五下午看診、星期六下午休診、星期日下午休診、星期一晚上看診、星期二晚上看診、星期三晚上看診、星期四晚上看診、星期五晚上看診、星期六晚上休診、星期日晚上休診","-","","","臺北市","松山區","精忠里","NNNNNNYNNNNNYYNNNNNYY",121.553314,25.058242
"5901013433","杏一延吉藥局","02 -25798450","臺北市松山區延吉街32號",0,920,"2020/03/20 17:22:48","星期一上午看診、星期二上午休診、星期三上午休診、星期四上午看診、星期五上午休診、星期六上午看診、星期日上午休診、星期一下午看診、星期二下午看診、星期三下午看診、星期四下午看診、星期五下午看診、星期六下午看診、星期日下午看診、星期一晚上休診、星期二晚上看診、星期三晚上看診、星期四晚上休診、星期五晚上看診、星期六晚上休診、星期日晚上休診","國定假日有提供藥事服務業務","","","臺北市","松山區","吉仁里","NYYNYNYNNNNNNNYNNYNYY",121.553504,25.046075
"5901013442","松山八德藥局","02 -27782773","臺北市松山區八德路2段400號",30,4147,"2020/03/20 17:22:48","星期一上午看診、星期二上午看診、星期三上午看診、星期四上午看診、星期五上午看診、星期六上午看診、星期日上午看診、星期一下午看診、星期二下午看診、星期三下午看診、星期四下午看診、星期五下午看診、星期六下午看診、星期日下午看診、星期一晚上看診、星期二晚上看診、星期三晚上看診、星期四晚上看診、星期五晚上看診、星期六晚上看診、星期日晚上看診","口罩販賣時段：下午7:30起至售完為止","","","臺北市","松山區","中崙里","NNNNNNNNNNNNNNNNNNNNN",121.54657,25.048043
"5901013451","新德大藥局","02 -27673402","臺北市松山區饒河街204號",0,2725,"2020/03/20 17:22:48","星期一上午看診、星期二上午看診、星期三上午看診、星期四上午看診、星期五上午看診、星期六上午看診、星期日上午看診、星期一下午看診、星期二下午看診、星期三下午看診、星期四下午看診、星期五下午看診、星期六下午看診、星期日下午看診、星期一晚上看診、星期二晚上看診、星期三晚上看診、星期四晚上看診、星期五晚上看診、星期六晚上看診、星期日晚上看診","-","","","臺北市","松山區","慈祐里","NNNNNNNNNNNNNNNNNNNNN",121.577035,25.050743
"5901013460","光點延新藥局","02 -27667795","台北市松山區延壽街101號",0,0,"","星期一上午看診、星期二上午看診、星期三上午看診、星期四上午看診、星期五上午看診、星期六上午看診、星期日上午看診、星期一下午看診、星期二下午看診、星期三下午看診、星期四下午看診、星期五下午看診、星期六下午看診、星期日下午看診、星期一晚上看診、星期二晚上看診、星期三晚上看診、星期四晚上看診、星期五晚上看診、星期六晚上看診、星期日晚上看診","每天 [ 9 & 21點 ] 各別發放口罩 [成人]300片 ; [兒童]100片","","","臺北市","松山區","富泰里","NNNNNNNNNNNNNNNNNNNNN",121.56597,25.057162
"5901013488","欣生藥局","02 -27567611","臺北市松山區民生東路5段138巷1號",120,4031,"2020/03/20 17:22:48","星期一上午看診、星期二上午看診、星期三上午看診、星期四上午看診、星期五上午看診、星期六上午看診、星期日上午休診、星期一下午看診、星期二下午看診、星期三下午看診、星期四下午看診、星期五下午看診、星期六下午看診、星期日下午休診、星期一晚上看診、星期二晚上看診、星期三晚上看診、星期四晚上看診、星期五晚上看診、星期六晚上休診、星期日晚上休診","口罩發放時間:週一到週五為15:00~21:30，週六為15:00~18:00，週日不營業.","","","臺北市","松山區","三民里","NNNNNNYNNNNNNYNNNNNYY",121.561699,25.058532
"5901013497","民生盛康藥局","02 -27460758","臺北市松山區民生東路5段204號",36,934,"2020/03/20 17:22:48","星期一上午看診、星期二上午看診、星期三上午看診、星期四上午看診、星期五上午看診、星期六上午看診、星期日上午看診、星期一下午看診、星期二下午看診、星期三下午看診、星期四下午看診、星期五下午看診、星期六下午看診、星期日下午看診、星期一晚上看診、星期二晚上看診、星期三晚上看診、星期四晚上看診、星期五晚上看診、星期六晚上看診、星期日晚上看診","-","","","臺北市","松山區","富泰里","NNNNNNNNNNNNNNNNNNNNN",121.56477,25.058258
"5901013504","杏一台北長庚藥局","02 -25149463","臺北市松山區敦化北路199巷2弄3號",0,790,"2020/03/20 17:22:48","星期一上午看診、星期二上午看診、星期三上午看診、星期四上午看診、星期五上午看診、星期六上午看診、星期日上午看診、星期一下午看診、星期二下午看診、星期三下午看診、星期四下午看診、星期五下午看診、星期六下午看診、星期日下午看診、星期一晚上看診、星期二晚上看診、星期三晚上看診、星期四晚上看診、星期五晚上看診、星期六晚上看診、星期日晚上看診","-","","","臺北市","松山區","中華里","NNNNNNNNNNNNNNNNNNNNN",121.550038,25.055685
"5901013513","立赫民生藥局","02 -27139200","臺北市松山區民生東路4段68號",0,709,"2020/03/20 17:22:48","星期一上午看診、星期二上午看診、星期三上午看診、星期四上午看診、星期五上午看診、星期六上午看診、星期日上午休診、星期一下午看診、星期二下午看診、星期三下午看診、星期四下午看診、星期五下午看診、星期六下午看診、星期日下午看診、星期一晚上看診、星期二晚上看診、星期三晚上看診、星期四晚上看診、星期五晚上看診、星期六晚上看診、星期日晚上看診","-","","","臺北市","松山區","精忠里","NNNNNNYNNNNNNNNNNNNNN",121.55223,25.057856
"5901013522","大樹松山藥局","02 -27562226","臺北市松山區民生東路5段107號",3,2976,"2020/03/20 17:22:48","星期一上午看診、星期二上午看診、星期三上午看診、星期四上午看診、星期五上午看診、星期六上午看診、星期日上午看診、星期一下午看診、星期二下午看診、星期三下午看診、星期四下午看診、星期五下午看診、星期六下午看診、星期日下午看診、星期一晚上看診、星期二晚上看診、星期三晚上看診、星期四晚上看診、星期五晚上看診、星期六晚上看診、星期日晚上看診","口罩販賣時段：19:30起","","","臺北市","松山區","東榮里","NNNNNNNNNNNNNNNNNNNNN",121.560139,25.058776
"5901020296","百立藥局","02 -27327211","台北市大安區和平東路3段228巷66號1樓",0,1400,"2020/03/20 17:22:48","星期一上午看診、星期二上午看診、星期三上午看診、星期四上午看診、星期五上午看診、星期六上午看診、星期日上午休診、星期一下午看診、星期二下午看診、星期三下午看診、星期四下午看診、星期五下午看診、星期六下午休診、星期日下午休診、星期一晚上看診、星期二晚上看診、星期三晚上看診、星期四晚上看診、星期五晚上看診、星期六晚上休診、星期日晚上休診","週一至週五下午2:30開始購買口罩(不發號碼牌)週六及週日下午停發口罩","","","臺北市","大安區","芳和里","NNNNNNYNNNNNYYNNNNNYY",121.553407,25.020995
"5901020303","宏恩藥局","02 -27000956","台北市大安區大安路1段181號",0,1030,"2020/03/20 17:22:48","星期一上午看診、星期二上午看診、星期三上午看診、星期四上午看診、星期五上午看診、星期六上午看診、星期日上午休診、星期一下午看診、星期二下午看診、星期三下午看診、星期四下午看診、星期五下午看診、星期六下午看診、星期日下午休診、星期一晚上看診、星期二晚上看診、星期三晚上看診、星期四晚上看診、星期五晚上看診、星期六晚上休診、星期日晚上休診","實名制口罩每周一~六，10:00發放號碼牌， 另於14:00~21:00自由擇時，持號碼牌領取口罩","","","臺北市","大安區","德安里","NNNNNNYNNNNNNYNNNNNYY",121.546113,25.036188
"5901020376","靜園藥局","02 -27336390","台北市大安區和平東路2段118巷57之1號",27,2508,"2020/03/20 17:22:48","星期一上午看診、星期二上午看診、星期三上午看診、星期四上午看診、星期五上午看診、星期六上午休診、星期日上午休診、星期一下午看診、星期二下午看診、星期三下午看診、星期四下午看診、星期五下午看診、星期六下午看診、星期日下午看診、星期一晚上看診、星期二晚上看診、星期三晚上看診、星期四晚上看診、星期五晚上看診、星期六晚上看診、星期日晚上看診","-","","","臺北市","大安區","龍淵里","NNNNNYYNNNNNNNNNNNNNN",121.542921,25.022541
"5901020385","延吉大藥局","02 -27819227","台北市大安區延吉街153號1樓",0,930,"2020/03/20 17:22:48","星期一上午看診、星期二上午看診、星期三上午看診、星期四上午看診、星期五上午看診、星期六上午休診、星期日上午休診、星期一下午看診、星期二下午看診、星期三下午看診、星期四下午看診、星期五下午看診、星期六下午休診、星期日下午休診、星期一晚上看診、星期二晚上看診、星期三晚上看診、星期四晚上看診、星期五晚上看診、星期六晚上休診、星期日晚上休診","8:30開始排隊販賣口罩","","","臺北市","大安區","正聲里","NNNNNYYNNNNYYYNNNNYYY",121.554791,25.040657
"5901020465","杏友藥局","02 -27079451","台北市大安區復興南路2段151巷25號",0,2350,"2020/03/20 17:22:48","星期一上午看診、星期二上午看診、星期三上午看診、星期四上午看診、星期五上午看診、星期六上午看診、星期日上午休診、星期一下午看診、星期二下午看診、星期三下午看診、星期四下午看診、星期五下午看診、星期六下午看診、星期日下午看診、星期一晚上看診、星期二晚上看診、星期三晚上看診、星期四晚上看診、星期五晚上看診、星期六晚上休診、星期日晚上看診","-","","","臺北市","大安區","龍雲里","NNNNNNYNNNNNNNNNNNNYN",121.544635,25.028469
"5901020554","師大藥局","02 -23623479","台北市大安區師大路99號1樓",2,94,"2020/03/20 17:22:48","星期一上午看診、星期二上午看診、星期三上午看診、星期四上午看診、星期五上午看診、星期六上午看診、星期日上午休診、星期一下午看診、星期二下午看診、星期三下午看診、星期四下午看診、星期五下午看診、星期六下午看診、星期日下午休診、星期一晚上看診、星期二晚上看診、星期三晚上看診、星期四晚上看診、星期五晚上看診、星期六晚上看診、星期日晚上休診","-","","","臺北市","大安區","古風里","NNNNNNYNNNNNNYNNNNNNY",121.528509,25.02271
"5901020563","施寶藥局","02 -27114175","台北市大安區安東街50－5號1樓",0,1990,"2020/03/20 17:22:48","星期一上午看診、星期二上午看診、星期三上午看診、星期四上午看診、星期五上午看診、星期六上午看診、星期日上午看診、星期一下午看診、星期二下午看診、星期三下午看診、星期四下午看診、星期五下午看診、星期六下午看診、星期日下午看診、星期一晚上看診、星期二晚上看診、星期三晚上看診、星期四晚上看診、星期五晚上看診、星期六晚上休診、星期日晚上休診","口罩代售時間週一至週五下午二點至五點周六至周日早上10點至12點","","","臺北市","大安區","誠安里","NNNNNNNNNNNNYYNNNNNYY",121.54256,25.042768
"5901020590","燕福藥局","02 -23627307","台北市大安區羅斯福路3段283巷14弄14號之3",0,3310,"2020/03/20 17:22:48","星期一上午看診、星期二上午看診、星期三上午看診、星期四上午看診、星期五上午看診、星期六上午看診、星期日上午看診、星期一下午休診、星期二下午休診、星期三下午休診、星期四下午休診、星期五下午休診、星期六下午看診、星期日下午看診、星期一晚上看診、星期二晚上看診、星期三晚上看診、星期四晚上看診、星期五晚上看診、星期六晚上看診、星期日晚上看診","口罩銷售服務時間:19:00開始","","","臺北市","大安區","大學里","NNNNNNNYYYYYNNNNNNNNN",121.532433,25.018166
"5901020616","龍護大藥局","02 -23250686","台北市大安區大安路1段224巷7號1Ｆ",0,837,"2020/03/20 17:22:48","星期一上午看診、星期二上午看診、星期三上午看診、星期四上午看診、星期五上午看診、星期六上午看診、星期日上午看診、星期一下午看診、星期二下午看診、星期三下午看診、星期四下午看診、星期五下午看診、星期六下午看診、星期日下午休診、星期一晚上看診、星期二晚上看診、星期三晚上看診、星期四晚上看診、星期五晚上看診、星期六晚上看診、星期日晚上看診","-","","","臺北市","大安區","仁慈里","NNNNNNNNNNNNNYNNNNNNN",121.545445,25.034014
"5901020634","新廣生藥局","02 -27071221","台北市大安區仁愛路4段34號",0,747,"2020/03/20 17:22:48","星期一上午看診、星期二上午看診、星期三上午看診、星期四上午看診、星期五上午看診、星期六上午看診、星期日上午休診、星期一下午看診、星期二下午看診、星期三下午看診、星期四下午看診、星期五下午看診、星期六下午看診、星期日下午休診、星期一晚上看診、星期二晚上看診、星期三晚上看診、星期四晚上看診、星期五晚上看診、星期六晚上看診、星期日晚上休診","早上8:30發號碼牌，固定周日公休","","","臺北市","大安區","德安里","NNNNNNYNNNNNNYNNNNNNY",121.546722,25.03762
"5901020652","寶德藥局","02 -27364240","台北市大安區樂利路105號1Ｆ",0,1150,"2020/03/20 17:22:48","星期一上午看診、星期二上午看診、星期三上午看診、星期四上午看診、星期五上午看診、星期六上午看診、星期日上午休診、星期一下午看診、星期二下午看診、星期三下午看診、星期四下午看診、星期五下午看診、星期六下午看診、星期日下午休診、星期一晚上看診、星期二晚上看診、星期三晚上看診、星期四晚上看診、星期五晚上看診、星期六晚上休診、星期日晚上休診","-","","","臺北市","大安區","法治里","NNNNNNYNNNNNNYNNNNNYY",121.552389,25.025124
"5901020661","泰佑藥局","02 -27056841","台北市大安區安和路2段72號1Ｆ",0,560,"2020/03/20 17:22:48","星期一上午看診、星期二上午看診、星期三上午看診、星期四上午看診、星期五上午看診、星期六上午看診、星期日上午休診、星期一下午看診、星期二下午看診、星期三下午看診、星期四下午看診、星期五下午看診、星期六下午看診、星期日下午休診、星期一晚上看診、星期二晚上看診、星期三晚上看診、星期四晚上看診、星期五晚上看診、星期六晚上看診、星期日晚上休診","每日早上九點半","","","臺北市","大安區","義安里","NNNNNNYNNNNNNYNNNNNNY",121.551733,25.030107
"5901020670","杏安堂藥局","02 -27517636","台北市大安區忠孝東路4段77巷30號1樓",0,2212,"2020/03/20 17:22:48","星期一上午看診、星期二上午看診、星期三上午看診、星期四上午看診、星期五上午看診、星期六上午看診、星期日上午休診、星期一下午看診、星期二下午看診、星期三下午看診、星期四下午看診、星期五下午看診、星期六下午看診、星期日下午休診、星期一晚上看診、星期二晚上看診、星期三晚上看診、星期四晚上看診、星期五晚上看診、星期六晚上看診、星期日晚上休診","-","","","臺北市","大安區","光武里","NNNNNNYNNNNNNYNNNNNNY",121.547142,25.042921
"5901020689","四維藥局","02 -27094222","台北市大安區復興南路2段151巷43號1樓",136,2101,"2020/03/20 17:22:48","星期一上午看診、星期二上午看診、星期三上午看診、星期四上午看診、星期五上午看診、星期六上午看診、星期日上午看診、星期一下午看診、星期二下午看診、星期三下午看診、星期四下午看診、星期五下午看診、星期六下午看診、星期日下午休診、星期一晚上看診、星期二晚上看診、星期三晚上看診、星期四晚上看診、星期五晚上看診、星期六晚上看診、星期日晚上休診","假日可先打電話聯絡","","","臺北市","大安區","龍雲里","NNNNNNNNNNNNNYNNNNNNY",121.545447,25.028455
"5901020698","羅斯福藥局","02 -23699606","台北市大安區羅斯福路3段283巷9弄3號",0,490,"2020/03/20 17:22:48","星期一上午看診、星期二上午看診、星期三上午看診、星期四上午看診、星期五上午看診、星期六上午看診、星期日上午休診、星期一下午看診、星期二下午看診、星期三下午看診、星期四下午看診、星期五下午看診、星期六下午看診、星期日下午休診、星期一晚上看診、星期二晚上看診、星期三晚上看診、星期四晚上看診、星期五晚上看診、星期六晚上看診、星期日晚上休診","-","","","臺北市","大安區","大學里","NNNNNNYNNNNNNYNNNNNNY",121.531295,25.019031
"5901020732","赫慶藥局","02 -27063497","台北市大安區瑞安街208巷11弄5號1樓",0,1003,"2020/03/20 17:22:48","星期一上午看診、星期二上午看診、星期三上午看診、星期四上午看診、星期五上午看診、星期六上午看診、星期日上午休診、星期一下午看診、星期二下午看診、星期三下午看診、星期四下午看診、星期五下午看診、星期六下午看診、星期日下午休診、星期一晚上看診、星期二晚上看診、星期三晚上看診、星期四晚上看診、星期五晚上看診、星期六晚上看診、星期日晚上休診","口罩代售時間星期一至六下午1點；號碼牌發放時間自下午1點","","","臺北市","大安區","龍圖里","NNNNNNYNNNNNNYNNNNNNY",121.540809,25.02866
"5901020787","吉成藥局","02 -23636475","台北市大安區泰順街7號",45,311,"2020/03/20 17:22:48","星期一上午看診、星期二上午看診、星期三上午看診、星期四上午看診、星期五上午看診、星期六上午看診、星期日上午看診、星期一下午看診、星期二下午看診、星期三下午看診、星期四下午看診、星期五下午看診、星期六下午看診、星期日下午看診、星期一晚上看診、星期二晚上看診、星期三晚上看診、星期四晚上看診、星期五晚上看診、星期六晚上看診、星期日晚上看診","每日下午三點發放防疫口罩號碼牌，同時間開始販賣口罩，下午六點前請領取完畢，無號碼牌者無法購買口罩","","","臺北市","大安區","龍坡里","NNNNNNNNNNNNNNNNNNNNN",121.531585,25.025568
"5901020858","順天堂藥局","02 -23627149","台北市大安區龍泉街96號",0,48,"2020/03/20 17:22:48","星期一上午看診、星期二上午看診、星期三上午看診、星期四上午看診、星期五上午看診、星期六上午看診、星期日上午休診、星期一下午看診、星期二下午看診、星期三下午看診、星期四下午看診、星期五下午看診、星期六下午看診、星期日下午休診、星期一晚上看診、星期二晚上看診、星期三晚上看診、星期四晚上看診、星期五晚上看診、星期六晚上看診、星期日晚上看診","營業時間：周一至週五AM9:30-PM10:00；禮拜日公休","","","臺北市","大安區","古風里","NNNNNNYNNNNNNYNNNNNNY",121.529203,25.022564
"5901020876","大興藥局","02 -27053369","台北市大安區通化街39巷50弄15號1樓",0,474,"2020/03/20 17:22:48","星期一上午看診、星期二上午看診、星期三上午看診、星期四上午看診、星期五上午看診、星期六上午看診、星期日上午休診、星期一下午看診、星期二下午看診、星期三下午看診、星期四下午看診、星期五下午看診、星期六下午看診、星期日下午休診、星期一晚上看診、星期二晚上看診、星期三晚上看診、星期四晚上看診、星期五晚上看診、星期六晚上看診、星期日晚上休診","口罩代售時間自08:30開始，現場排隊","","","臺北市","大安區","通化里","NNNNNNYNNNNNNYNNNNNNY",121.555477,25.030555
"5901020901","辰安藥局","02 -27119536","台北市大安區大安路1段31巷28號",0,1648,"2020/03/20 17:22:48","星期一上午看診、星期二上午看診、星期三上午看診、星期四上午看診、星期五上午看診、星期六上午看診、星期日上午休診、星期一下午看診、星期二下午看診、星期三下午看診、星期四下午看診、星期五下午看診、星期六下午看診、星期日下午休診、星期一晚上看診、星期二晚上看診、星期三晚上看診、星期四晚上看診、星期五晚上看診、星期六晚上看診、星期日晚上休診","早上9:50分開始販賣口罩，賣完為止","","","臺北市","大安區","光武里","NNNNNNYNNNNNNYNNNNNNY",121.547181,25.043848
"5901021248","永誠藥局","02 -27520273","台北市大安區忠孝東路4段216巷25之1號",15,220,"2020/03/20 17:22:48","星期一上午看診、星期二上午看診、星期三上午看診、星期四上午看診、星期五上午看診、星期六上午看診、星期日上午休診、星期一下午看診、星期二下午看診、星期三下午看診、星期四下午看診、星期五下午看診、星期六下午看診、星期日下午休診、星期一晚上看診、星期二晚上看診、星期三晚上看診、星期四晚上看診、星期五晚上看診、星期六晚上看診、星期日晚上休診","-","","","臺北市","大安區","車層里","NNNNNNYNNNNNNYNNNNNNY",121.553063,25.039967
"5901021346","正昌藥局","02 -27540070","台北市大安區通化街38巷9號1樓",0,1600,"2020/03/20 17:22:48","星期一上午看診、星期二上午看診、星期三上午看診、星期四上午看診、星期五上午看診、星期六上午看診、星期日上午看診、星期一下午看診、星期二下午看診、星期三下午看診、星期四下午看診、星期五下午看診、星期六下午看診、星期日下午看診、星期一晚上看診、星期二晚上看診、星期三晚上看診、星期四晚上看診、星期五晚上看診、星期六晚上看診、星期日晚上看診","-","","","臺北市","大安區","通安里","NNNNNNNNNNNNNNNNNNNNN",121.553716,25.030983
"5901021382","建如藥局","02 -27331456","台北市大安區和平東路3段228巷11號1Ｆ",0,256,"2020/03/20 17:22:48","星期一上午看診、星期二上午看診、星期三上午看診、星期四上午看診、星期五上午看診、星期六上午看診、星期日上午休診、星期一下午看診、星期二下午看診、星期三下午看診、星期四下午看診、星期五下午看診、星期六下午看診、星期日下午休診、星期一晚上看診、星期二晚上看診、星期三晚上看診、星期四晚上看診、星期五晚上看診、星期六晚上休診、星期日晚上休診","早上8點開始發號碼牌.下午14點取回健保卡及口罩","","","臺北市","大安區","黎孝里","NNNNNNYNNNNNNYNNNNNYY",121.554342,25.021742
"5901021408","生百藥局","02 -27371011","台北市大安區臨江街124號",12,3195,"2020/03/20 17:22:48","星期一上午休診、星期二上午休診、星期三上午休診、星期四上午休診、星期五上午休診、星期六上午休診、星期日上午休診、星期一下午看診、星期二下午看診、星期三下午看診、星期四下午看診、星期五下午看診、星期六下午休診、星期日下午休診、星期一晚上看診、星期二晚上看診、星期三晚上看診、星期四晚上看診、星期五晚上看診、星期六晚上看診、星期日晚上休診","口罩販賣時段:周一-五 16-19時; 周六 18-20時，國定假日，店休","","","臺北市","大安區","通安里","YYYYYYYNNNNNYYNNNNNNY",121.553878,25.030235
"5901022521","台安藥局","02 -27549099","台北市大安區和平東路2段353號1樓",0,1224,"2020/03/20 17:22:48","星期一上午看診、星期二上午看診、星期三上午看診、星期四上午看診、星期五上午看診、星期六上午看診、星期日上午休診、星期一下午看診、星期二下午休診、星期三下午看診、星期四下午看診、星期五下午看診、星期六下午休診、星期日下午休診、星期一晚上看診、星期二晚上看診、星期三晚上看診、星期四晚上看診、星期五晚上看診、星期六晚上休診、星期日晚上休診","平日上午8:30發放號碼牌，上午10:30前有效為嚴格執行。逾期視同棄權。平日晚上六點後&周末假日沒有提供口罩業務。","平日上午8:30發放號碼牌，一張號碼牌即一人份購買資格，成人口罩共100號，兒童口罩共25號，發完為止。
須符合健保局公告資格始得刷健保卡購買。號碼牌限當日購買時間內有效，逾期等同放棄資格。將釋出餘量於隔日販售時間販售。p.s晚上6:00-9:10不提供口罩販售服務，請見諒。
販售時間：領到號碼牌後請於上午12:00前，或下午3:00-6:00前，憑當日號碼牌與符合資格之健保卡購買。
請自備10元，恕不找零。","","臺北市","大安區","群賢里","NNNNNNYNYYYNYYNNNNNYY",121.546163,25.024869
"5901022601","生光藥局","02 -27780862","台北市大安區忠孝東路3段248巷2號",0,1197,"2020/03/20 17:22:48","星期一上午看診、星期二上午看診、星期三上午看診、星期四上午看診、星期五上午看診、星期六上午看診、星期日上午休診、星期一下午看診、星期二下午看診、星期三下午看診、星期四下午看診、星期五下午看診、星期六下午看診、星期日下午休診、星期一晚上看診、星期二晚上看診、星期三晚上看診、星期四晚上看診、星期五晚上看診、星期六晚上看診、星期日晚上休診","上午11:00開始發售口罩(周日及國定假日公休)","","","臺北市","大安區","義村里","NNNNNNYNNNNNNYNNNNNNY",121.541207,25.041353
"5901022898","永康藥局","02 -23279362","台北市大安區麗水街6之2號",0,402,"2020/03/20 17:22:48","星期一上午看診、星期二上午看診、星期三上午看診、星期四上午看診、星期五上午看診、星期六上午看診、星期日上午看診、星期一下午看診、星期二下午看診、星期三下午看診、星期四下午看診、星期五下午看診、星期六下午看診、星期日下午看診、星期一晚上看診、星期二晚上看診、星期三晚上看診、星期四晚上看診、星期五晚上看診、星期六晚上看診、星期日晚上看診","-","","","臺北市","大安區","永康里","NNNNNNNNNNNNNNNNNNNNN",121.528995,25.032891
"5901023073","世中欣藥局","02 -23938947","台北市大安區永康街2巷8號",0,832,"2020/03/20 17:22:48","星期一上午看診、星期二上午看診、星期三上午看診、星期四上午看診、星期五上午休診、星期六上午休診、星期日上午休診、星期一下午看診、星期二下午看診、星期三下午看診、星期四下午看診、星期五下午休診、星期六下午休診、星期日下午休診、星期一晚上看診、星期二晚上看診、星期三晚上看診、星期四晚上看診、星期五晚上休診、星期六晚上休診、星期日晚上休診","口罩 週一週五 10：00-12：00 排隊直接購買。週六 13：00-15：00 排隊直接購買. 週日休息.","","","臺北市","大安區","永康里","NNNNNNYNNNNNNYNNNNNYY",121.529407,25.033154
"5901023091","加豐藥局","02 -27219678","台北市大安區忠孝東路3段216巷3弄1號1樓",138,3645,"2020/03/20 17:22:48","星期一上午看診、星期二上午看診、星期三上午看診、星期四上午看診、星期五上午看診、星期六上午休診、星期日上午休診、星期一下午看診、星期二下午看診、星期三下午看診、星期四下午看診、星期五下午看診、星期六下午休診、星期日下午休診、星期一晚上看診、星期二晚上看診、星期三晚上看診、星期四晚上看診、星期五晚上看診、星期六晚上休診、星期日晚上休診","上午8:30發號碼排，下午14:00-16:00發口罩","","","臺北市","大安區","義村里","NNNNNNYNNNNNNYNNNNNNY",121.540265,25.041255
"5901023153","崇光藥局","02 -27217958","台北市大安區忠孝東路3段305號7樓之3",0,3067,"2020/03/20 17:22:48","星期一上午休診、星期二上午休診、星期三上午休診、星期四上午休診、星期五上午休診、星期六上午看診、星期日上午休診、星期一下午看診、星期二下午看診、星期三下午看診、星期四下午看診、星期五下午看診、星期六下午看診、星期日下午休診、星期一晚上看診、星期二晚上看診、星期三晚上看診、星期四晚上看診、星期五晚上看診、星期六晚上休診、星期日晚上休診","正式營業時間提前30分，發口罩號碼牌","","","臺北市","大安區","誠安里","YYYYYNYNNNNNNYNNNNNYY",121.543542,25.041887
"5901023215","大愛健康藥局","02 -27092156","台北市大安區敦化南路2段63巷65號",0,2382,"2020/03/20 17:22:48","星期一上午看診、星期二上午看診、星期三上午看診、星期四上午看診、星期五上午看診、星期六上午看診、星期日上午休診、星期一下午看診、星期二下午看診、星期三下午看診、星期四下午看診、星期五下午看診、星期六下午看診、星期日下午休診、星期一晚上看診、星期二晚上看診、星期三晚上看診、星期四晚上看診、星期五晚上看診、星期六晚上看診、星期日晚上看診","-","","","臺北市","大安區","義安里","NNNNNNYNNNNNNYNNNNNNN",121.551984,25.031031
"5901023304","麗樺藥師藥局","02 -23952628","台北市大安區麗水街3號",0,565,"2020/03/20 17:22:48","星期一上午看診、星期二上午看診、星期三上午看診、星期四上午看診、星期五上午看診、星期六上午看診、星期日上午休診、星期一下午看診、星期二下午看診、星期三下午看診、星期四下午看診、星期五下午看診、星期六下午看診、星期日下午休診、星期一晚上看診、星期二晚上看診、星期三晚上看診、星期四晚上看診、星期五晚上看診、星期六晚上看診、星期日晚上休診","-","","","臺北市","大安區","永康里","NNNNNNYNNNNNNYNNNNNNY",121.529038,25.032246
"5901023313","安和藥局","02 -27092349","台北市大安區安和路1段102巷3號",27,2028,"2020/03/20 17:22:48","星期一上午看診、星期二上午看診、星期三上午看診、星期四上午看診、星期五上午看診、星期六上午看診、星期日上午看診、星期一下午看診、星期二下午看診、星期三下午看診、星期四下午看診、星期五下午看診、星期六下午看診、星期日下午看診、星期一晚上看診、星期二晚上看診、星期三晚上看診、星期四晚上看診、星期五晚上看診、星期六晚上看診、星期日晚上看診","平日下午三點發號碼牌至售完為止/假日.列假日下午四點發號碼牌至售完為止","","","臺北市","大安區","敦安里","NNNNNNNNNNNNNNNNNNNNN",121.551941,25.034332
"5901023331","佑安藥局","02 -27069339","台北市大安區延吉街233巷9號",1,2837,"2020/03/20 17:22:48","星期一上午休診、星期二上午休診、星期三上午休診、星期四上午休診、星期五上午休診、星期六上午休診、星期日上午休診、星期一下午看診、星期二下午看診、星期三下午看診、星期四下午看診、星期五下午看診、星期六下午休診、星期日下午休診、星期一晚上看診、星期二晚上休診、星期三晚上看診、星期四晚上休診、星期五晚上看診、星期六晚上休診、星期日晚上休診","週末10:00起配發口罩至12:00","","","臺北市","大安區","光信里","YYYYYYYNNNNNNYNYNYNYY",121.55613,25.037083
"5901023386","弘昇藥局","02 -27110061","台北市大安區復興南路1段107巷32號",3,1574,"2020/03/20 17:22:48","星期一上午看診、星期二上午看診、星期三上午看診、星期四上午看診、星期五上午看診、星期六上午看診、星期日上午休診、星期一下午看診、星期二下午看診、星期三下午看診、星期四下午看診、星期五下午看診、星期六下午看診、星期日下午看診、星期一晚上看診、星期二晚上看診、星期三晚上看診、星期四晚上看診、星期五晚上看診、星期六晚上看診、星期日晚上看診","上午11點以後至晚上11點","","","臺北市","大安區","光武里","NNNNNNYNNNNNNNNNNNNNN",121.545787,25.043494
"5901023411","長虹藥局","02 -27210232","台北市大安區忠孝東路4段216巷 63號",102,165,"2020/03/20 17:22:48","星期一上午看診、星期二上午看診、星期三上午看診、星期四上午看診、星期五上午看診、星期六上午看診、星期日上午看診、星期一下午看診、星期二下午看診、星期三下午看診、星期四下午看診、星期五下午看診、星期六下午看診、星期日下午看診、星期一晚上看診、星期二晚上看診、星期三晚上看診、星期四晚上看診、星期五晚上看診、星期六晚上看診、星期日晚上看診","每天下午五點發放口罩（現場排隊，現場購買）","","","臺北市","大安區","車層里","NNNNNNNNNNNNNNNNNNNNN",121.553058,25.038204
"5901023519","惠盈藥局","02 -87321366","台北市大安區辛亥路2段171巷31號",0,1048,"2020/03/20 17:22:48","星期一上午看診、星期二上午看診、星期三上午看診、星期四上午看診、星期五上午看診、星期六上午看診、星期日上午看診、星期一下午看診、星期二下午看診、星期三下午看診、星期四下午看診、星期五下午看診、星期六下午看診、星期日下午看診、星期一晚上看診、星期二晚上看診、星期三晚上看診、星期四晚上看診、星期五晚上看診、星期六晚上看診、星期日晚上看診","口罩代售時間兩個時段;下午15:00和晚上20:00;現場排隊無號碼牌","","","臺北市","大安區","龍淵里","NNNNNNNNNNNNNNNNNNNNN",121.541193,25.022971
"5901023523","聯合仁愛藥局","02 -27039269","台北市大安區大安路1段157巷3號",729,1382,"2020/03/20 17:22:48","星期一上午看診、星期二上午看診、星期三上午看診、星期四上午看診、星期五上午看診、星期六上午看診、星期日上午看診、星期一下午看診、星期二下午看診、星期三下午看診、星期四下午看診、星期五下午看診、星期六下午休診、星期日下午休診、星期一晚上休診、星期二晚上休診、星期三晚上休診、星期四晚上休診、星期五晚上休診、星期六晚上休診、星期日晚上休診","上午8點~8點半發號碼牌，下午12點~6點領取，其餘時間不受理口罩業務 ，週六日未販售口罩。","","","臺北市","大安區","德安里","NNNNNNNNNNNNYYYYYYYYY",121.546319,25.037308
"5901023591","一心藥局","02 -27321818","台北市大安區和平東路3段238號",0,1087,"2020/03/20 17:22:48","星期一上午看診、星期二上午看診、星期三上午看診、星期四上午看診、星期五上午看診、星期六上午看診、星期日上午看診、星期一下午看診、星期二下午看診、星期三下午看診、星期四下午看診、星期五下午看診、星期六下午看診、星期日下午看診、星期一晚上看診、星期二晚上看診、星期三晚上看診、星期四晚上看診、星期五晚上看診、星期六晚上看診、星期日晚上看診","口罩一~五0800，六日1400開始售完為止","現場直接購買，不須號碼牌，星期一~五早上八點，六日下午二點賣完為止","","臺北市","大安區","黎孝里","NNNNNNNNNNNNNNNNNNNNN",121.554876,25.021906
"5901023653","信安健康藥局","02 -27084858","台北市大安區仁愛路4段122巷58號",0,721,"2020/03/20 17:22:48","星期一上午看診、星期二上午看診、星期三上午看診、星期四上午看診、星期五上午看診、星期六上午看診、星期日上午看診、星期一下午看診、星期二下午看診、星期三下午看診、星期四下午看診、星期五下午看診、星期六下午看診、星期日下午看診、星期一晚上看診、星期二晚上看診、星期三晚上看診、星期四晚上看診、星期五晚上看診、星期六晚上看診、星期日晚上看診","-","","","臺北市","大安區","敦安里","NNNNNNNNNNNNNNNNNNNNN",121.550117,25.033923
"5901023680","新富川藥局","02 -27114758","台北市大安區大安路1段51巷4號",30,665,"2020/03/20 17:22:48","星期一上午看診、星期二上午看診、星期三上午看診、星期四上午看診、星期五上午看診、星期六上午看診、星期日上午看診、星期一下午看診、星期二下午看診、星期三下午看診、星期四下午看診、星期五下午看診、星期六下午看診、星期日下午看診、星期一晚上休診、星期二晚上休診、星期三晚上休診、星期四晚上休診、星期五晚上休診、星期六晚上休診、星期日晚上休診","無提供急診服務","每日10：30發放號碼牌","","臺北市","大安區","光武里","NNNNNNNNNNNNNNYYYYYYY",121.546392,25.043029
"5901023706","聖英藥局","02 -27055851","台北市大安區仁愛路4段266巷15弄18號",0,2366,"2020/03/20 17:22:48","星期一上午看診、星期二上午看診、星期三上午看診、星期四上午看診、星期五上午看診、星期六上午看診、星期日上午看診、星期一下午看診、星期二下午看診、星期三下午看診、星期四下午看診、星期五下午看診、星期六下午看診、星期日下午看診、星期一晚上看診、星期二晚上看診、星期三晚上看診、星期四晚上看診、星期五晚上看診、星期六晚上看診、星期日晚上看診","-","","","臺北市","大安區","敦煌里","NNNNNNNNNNNNNNNNNNNNN",121.553997,25.036542
"5901023724","元氣生活健保藥局","02 -27060580","台北市大安區新生南路1段161巷10號",30,1076,"2020/03/20 17:22:48","星期一上午看診、星期二上午看診、星期三上午看診、星期四上午看診、星期五上午看診、星期六上午看診、星期日上午休診、星期一下午看診、星期二下午看診、星期三下午看診、星期四下午看診、星期五下午看診、星期六下午看診、星期日下午休診、星期一晚上看診、星期二晚上看診、星期三晚上看診、星期四晚上看診、星期五晚上看診、星期六晚上看診、星期日晚上休診","10:00發成人口罩號碼牌，號碼牌可領到18:00，六點後釋出未領名額。兒童口罩免號碼牌。","","","臺北市","大安區","民炤里","NNNNNNYNNNNNNYNNNNNNY",121.534662,25.034545
"5901024212","中力信義藥局","02 -23250266","台北市大安區信義路4段51號",0,2595,"2020/03/20 17:22:48","星期一上午看診、星期二上午看診、星期三上午看診、星期四上午看診、星期五上午看診、星期六上午看診、星期日上午看診、星期一下午看診、星期二下午看診、星期三下午看診、星期四下午看診、星期五下午看診、星期六下午看診、星期日下午看診、星期一晚上看診、星期二晚上看診、星期三晚上看診、星期四晚上看診、星期五晚上看診、星期六晚上休診、星期日晚上休診","-","","","臺北市","大安區","仁慈里","NNNNNNNNNNNNNNNNNNNYY",121.544997,25.033544
"5901024221","安居藥局","02 -23773537","台北市大安區安居街19號",0,1873,"2020/03/20 17:22:48","星期一上午看診、星期二上午看診、星期三上午看診、星期四上午看診、星期五上午看診、星期六上午看診、星期日上午休診、星期一下午休診、星期二下午休診、星期三下午休診、星期四下午休診、星期五下午休診、星期六下午休診、星期日下午休診、星期一晚上看診、星期二晚上看診、星期三晚上看診、星期四晚上看診、星期五晚上看診、星期六晚上休診、星期日晚上休診","領口罩注意事項:週一到週六早上8:30發號碼牌，憑號碼牌於中午12點前領取.週日不營業","","","臺北市","大安區","黎孝里","NNNNNNYYYYYYYYNNNNNYY",121.554935,25.020856
"5901024310","躍獅新生藥局","02 -23623367","台北市大安區和平東路2段20號",0,15,"2020/03/20 17:22:48","星期一上午看診、星期二上午看診、星期三上午看診、星期四上午看診、星期五上午看診、星期六上午看診、星期日上午看診、星期一下午看診、星期二下午看診、星期三下午看診、星期四下午看診、星期五下午看診、星期六下午看診、星期日下午看診、星期一晚上看診、星期二晚上看診、星期三晚上看診、星期四晚上看診、星期五晚上看診、星期六晚上看診、星期日晚上看診","口罩販售時段:早上九點至售完為止","","","臺北市","大安區","龍門里","NNNNNNNNNNNNNNNNNNNNN",121.536221,25.025664
"5901024347","博大藥局","02 -27027858","台北市大安區安和路2段65號",0,30,"2020/03/20 17:22:48","星期一上午看診、星期二上午看診、星期三上午看診、星期四上午看診、星期五上午看診、星期六上午看診、星期日上午看診、星期一下午看診、星期二下午看診、星期三下午看診、星期四下午看診、星期五下午看診、星期六下午看診、星期日下午看診、星期一晚上看診、星期二晚上看診、星期三晚上看診、星期四晚上看診、星期五晚上看診、星期六晚上看診、星期日晚上看診","-","","","臺北市","大安區","通安里","NNNNNNNNNNNNNNNNNNNNN",121.552568,25.030627
"5901024427","博昱仁愛藥局","02 -87739258","臺北市大安區仁愛路4段65號",0,0,"","星期一上午看診、星期二上午看診、星期三上午看診、星期四上午看診、星期五上午看診、星期六上午看診、星期日上午看診、星期一下午看診、星期二下午看診、星期三下午看診、星期四下午看診、星期五下午看診、星期六下午看診、星期日下午看診、星期一晚上看診、星期二晚上看診、星期三晚上看診、星期四晚上看診、星期五晚上看診、星期六晚上看診、星期日晚上看診","8:00-22:00","","","臺北市","大安區","仁愛里","NNNNNNNNNNNNNNNNNNNNN",121.546869,25.038194
"5901024472","忠孝康承健保藥局","02 -87733378","台北市大安區復興南路1段107巷4號",0,1076,"2020/03/20 17:22:48","星期一上午休診、星期二上午看診、星期三上午看診、星期四上午看診、星期五上午看診、星期六上午看診、星期日上午看診、星期一下午休診、星期二下午看診、星期三下午看診、星期四下午看診、星期五下午看診、星期六下午看診、星期日下午看診、星期一晚上休診、星期二晚上看診、星期三晚上看診、星期四晚上看診、星期五晚上看診、星期六晚上看診、星期日晚上看診","周一公休外，周二到周日口罩10:30開始發號碼牌，10:30直接開始依號碼牌序號銷售","","","臺北市","大安區","光武里","YNNNNNNYNNNNNNYNNNNNN",121.544399,25.043565
"5901024481","微笑藥師藥局","02 -27009655","台北市大安區信義路3段31巷4號",0,1,"2020/03/20 17:22:48","星期一上午看診、星期二上午看診、星期三上午看診、星期四上午看診、星期五上午看診、星期六上午看診、星期日上午看診、星期一下午看診、星期二下午看診、星期三下午看診、星期四下午看診、星期五下午看診、星期六下午看診、星期日下午看診、星期一晚上看診、星期二晚上看診、星期三晚上看診、星期四晚上看診、星期五晚上看診、星期六晚上看診、星期日晚上看診","09:50 發放號碼牌 10:00開始領口罩","","","臺北市","大安區","民炤里","NNNNNNNNNNNNNNNNNNNNN",121.534458,25.034007
"5901024490","明星大藥局","02 -27023747","台北市大安區光復南路430之1號",0,0,"","星期一上午看診、星期二上午看診、星期三上午看診、星期四上午看診、星期五上午看診、星期六上午看診、星期日上午看診、星期一下午看診、星期二下午看診、星期三下午看診、星期四下午看診、星期五下午看診、星期六下午看診、星期日下午看診、星期一晚上看診、星期二晚上看診、星期三晚上看診、星期四晚上看診、星期五晚上看診、星期六晚上看診、星期日晚上看診","每日早上9:00準時發號碼牌並領口罩","周一至周日，每日上午九點開店時，發放全部號碼牌，並現場直接照號碼牌過卡領口罩。","","臺北市","大安區","光信里","NNNNNNNNNNNNNNNNNNNNN",121.557375,25.036184
"5901024516","博昱師大藥局","02 -23696966","台北市大安區羅斯福路3段189號",0,0,"","星期一上午看診、星期二上午看診、星期三上午看診、星期四上午看診、星期五上午看診、星期六上午看診、星期日上午看診、星期一下午看診、星期二下午看診、星期三下午看診、星期四下午看診、星期五下午看診、星期六下午看診、星期日下午看診、星期一晚上看診、星期二晚上看診、星期三晚上看診、星期四晚上看診、星期五晚上看診、星期六晚上看診、星期日晚上看診","執業時間8點到22點","","","臺北市","大安區","古風里","NNNNNNNNNNNNNNNNNNNNN",121.528069,25.02109
"5901024525","國泰維康藥局","02 -27542185","台北市大安區仁愛路4段266巷15弄20號",0,3142,"2020/03/20 17:22:48","星期一上午看診、星期二上午看診、星期三上午看診、星期四上午看診、星期五上午看診、星期六上午看診、星期日上午看診、星期一下午看診、星期二下午看診、星期三下午看診、星期四下午看診、星期五下午看診、星期六下午看診、星期日下午看診、星期一晚上看診、星期二晚上看診、星期三晚上看診、星期四晚上看診、星期五晚上看診、星期六晚上看診、星期日晚上看診","每天下午3點開始發放","","","臺北市","大安區","敦煌里","NNNNNNNNNNNNNNNNNNNNN",121.5541,25.03654
"5901024543","奇威藥局","02 -23651110","台北市大安區雲和街93號",0,525,"2020/03/20 17:22:48","星期一上午看診、星期二上午看診、星期三上午看診、星期四上午看診、星期五上午看診、星期六上午看診、星期日上午休診、星期一下午看診、星期二下午看診、星期三下午看診、星期四下午看診、星期五下午看診、星期六下午看診、星期日下午休診、星期一晚上看診、星期二晚上看診、星期三晚上看診、星期四晚上看診、星期五晚上看診、星期六晚上看診、星期日晚上休診","-","","","臺北市","大安區","龍泉里","NNNNNNYNNNNNNYNNNNNNY",121.531152,25.023386
"5901024632","艾登安和藥局","02 -27015201","台北市大安區安和路1段123號",36,0,"2020/03/20 17:22:48","星期一上午看診、星期二上午看診、星期三上午看診、星期四上午看診、星期五上午看診、星期六上午看診、星期日上午休診、星期一下午看診、星期二下午看診、星期三下午看診、星期四下午看診、星期五下午看診、星期六下午看診、星期日下午看診、星期一晚上看診、星期二晚上看診、星期三晚上看診、星期四晚上看診、星期五晚上看診、星期六晚上看診、星期日晚上休診","號碼牌發放時間為09:30，晚上18:00前領回","","","臺北市","大安區","敦煌里","NNNNNNYNNNNNNYNNNNNNY",121.552681,25.034881
"5901024669","百岳藥局","02 -27551037","台北市大安區和平東路2段311巷11號",0,1534,"2020/03/20 17:22:48","星期一上午看診、星期二上午看診、星期三上午看診、星期四上午看診、星期五上午看診、星期六上午看診、星期日上午休診、星期一下午休診、星期二下午休診、星期三下午休診、星期四下午休診、星期五下午休診、星期六下午休診、星期日下午休診、星期一晚上看診、星期二晚上看診、星期三晚上看診、星期四晚上看診、星期五晚上看診、星期六晚上休診、星期日晚上休診","口罩星期一至星期五10:00-12:00；販售剩餘約70組時才開始發放號碼牌以利控管","","","臺北市","大安區","群賢里","NNNNNNYYYYYYYYNNNNNYY",121.545222,25.025138
"5901024678","大安健康人生藥局","02 -27025553","台北市大安區信義路4段34號",0,150,"2020/03/20 17:22:48","星期一上午看診、星期二上午看診、星期三上午看診、星期四上午看診、星期五上午看診、星期六上午看診、星期日上午看診、星期一下午看診、星期二下午看診、星期三下午看診、星期四下午看診、星期五下午看診、星期六下午看診、星期日下午看診、星期一晚上看診、星期二晚上看診、星期三晚上看診、星期四晚上看診、星期五晚上看診、星期六晚上看診、星期日晚上看診","-","","","臺北市","大安區","住安里","NNNNNNNNNNNNNNNNNNNNN",121.544742,25.033159
"5901024687","博昱大藥局","02 -23776199","台北市大安區樂業街148號、150號",0,0,"","星期一上午看診、星期二上午看診、星期三上午看診、星期四上午看診、星期五上午看診、星期六上午看診、星期日上午看診、星期一下午看診、星期二下午看診、星期三下午看診、星期四下午看診、星期五下午看診、星期六下午看診、星期日下午看診、星期一晚上看診、星期二晚上看診、星期三晚上看診、星期四晚上看診、星期五晚上看診、星期六晚上看診、星期日晚上看診","-","","","臺北市","大安區","黎元里","NNNNNNNNNNNNNNNNNNNNN",121.55295,25.019978
"5901024696","仁華藥局","02 -27336762","台北市大安區臥龍街155號",300,1683,"2020/03/20 17:22:48","星期一上午看診、星期二上午看診、星期三上午看診、星期四上午看診、星期五上午看診、星期六上午看診、星期日上午看診、星期一下午看診、星期二下午看診、星期三下午看診、星期四下午看診、星期五下午看診、星期六下午看診、星期日下午看診、星期一晚上看診、星期二晚上看診、星期三晚上看診、星期四晚上看診、星期五晚上看診、星期六晚上看診、星期日晚上看診","口罩代售時間平日自13:30和18:30/例假日自13:30；現場成人口罩排隊，兒童口罩隨時洽詢藥局","","","臺北市","大安區","黎元里","NNNNNNNNNNNNNNNNNNNNN",121.551094,25.018343
"5901024703","吾家藥局","02 -27066425","台北市大安區信義路4段265巷6之1號",0,224,"2020/03/20 17:22:48","星期一上午看診、星期二上午看診、星期三上午看診、星期四上午看診、星期五上午看診、星期六上午看診、星期日上午休診、星期一下午看診、星期二下午看診、星期三下午看診、星期四下午看診、星期五下午看診、星期六下午看診、星期日下午休診、星期一晚上看診、星期二晚上看診、星期三晚上看診、星期四晚上看診、星期五晚上看診、星期六晚上看診、星期日晚上休診","-","每日下午三點開始發放號碼牌","","臺北市","大安區","敦煌里","NNNNNNYNNNNNNYNNNNNNY",121.554205,25.033723
"5901024712","早安藥局","02 -27002209","台北市大安區建國南路2段151巷42號",0,486,"2020/03/20 17:22:48","星期一上午看診、星期二上午看診、星期三上午看診、星期四上午看診、星期五上午看診、星期六上午看診、星期日上午看診、星期一下午看診、星期二下午看診、星期三下午看診、星期四下午看診、星期五下午看診、星期六下午看診、星期日下午看診、星期一晚上看診、星期二晚上看診、星期三晚上看診、星期四晚上看診、星期五晚上看診、星期六晚上看診、星期日晚上看診","-","","","臺北市","大安區","新龍里","NNNNNNNNNNNNNNNNNNNNN",121.539578,25.028648
"5901024721","麗泰藥局","02 -27079595","台北市大安區復興南路2段151巷4號",0,365,"2020/03/20 17:22:48","星期一上午看診、星期二上午看診、星期三上午看診、星期四上午看診、星期五上午看診、星期六上午看診、星期日上午看診、星期一下午看診、星期二下午看診、星期三下午看診、星期四下午看診、星期五下午看診、星期六下午看診、星期日下午看診、星期一晚上看診、星期二晚上看診、星期三晚上看診、星期四晚上看診、星期五晚上看診、星期六晚上看診、星期日晚上看診","-","","","臺北市","大安區","群賢里","NNNNNNNNNNNNNNNNNNNNN",121.543998,25.028319
"5901024758","兆安健保藥局","02 -27363069","台北市大安區通化街139號",0,644,"2020/03/20 17:22:48","星期一上午看診、星期二上午看診、星期三上午看診、星期四上午看診、星期五上午看診、星期六上午看診、星期日上午看診、星期一下午看診、星期二下午看診、星期三下午看診、星期四下午看診、星期五下午看診、星期六下午看診、星期日下午看診、星期一晚上看診、星期二晚上看診、星期三晚上看診、星期四晚上看診、星期五晚上看診、星期六晚上看診、星期日晚上休診","代售時間: 週一~週六:9:00(成人450片)20:00(成人150片) 週日: 10:00(成人600片)","","","臺北市","大安區","臨江里","NNNNNNNNNNNNNNNNNNNNY",121.553977,25.02901
"5901024767","杏一樂業藥局","02 -27383194","台北市大安區樂業街162號",0,2009,"2020/03/20 17:22:48","星期一上午看診、星期二上午休診、星期三上午休診、星期四上午看診、星期五上午休診、星期六上午看診、星期日上午休診、星期一下午看診、星期二下午看診、星期三下午休診、星期四下午看診、星期五下午看診、星期六下午看診、星期日下午休診、星期一晚上休診、星期二晚上看診、星期三晚上看診、星期四晚上休診、星期五晚上看診、星期六晚上休診、星期日晚上休診","-","","","臺北市","大安區","黎元里","NYYNYNYNNYNNNYYNNYNYY",121.553459,25.019585
"5901024810","博興藥局","02 -23256668","台北市大安區四維路198巷28號",0,310,"2020/03/20 17:22:48","星期一上午看診、星期二上午看診、星期三上午看診、星期四上午看診、星期五上午看診、星期六上午休診、星期日上午休診、星期一下午看診、星期二下午看診、星期三下午看診、星期四下午看診、星期五下午看診、星期六下午休診、星期日下午休診、星期一晚上休診、星期二晚上休診、星期三晚上休診、星期四晚上休診、星期五晚上休診、星期六晚上休診、星期日晚上休診","-","","","臺北市","大安區","群英里","NNNNNNNNNNNNNNNNNNNNN",121.545964,25.026614
"5901024829","威康藥局","02 -27061149","台北市大安區和平東路2段255之1號",0,267,"2020/03/20 17:22:48","星期一上午看診、星期二上午看診、星期三上午看診、星期四上午看診、星期五上午看診、星期六上午看診、星期日上午休診、星期一下午看診、星期二下午看診、星期三下午看診、星期四下午看診、星期五下午看診、星期六下午看診、星期日下午休診、星期一晚上看診、星期二晚上看診、星期三晚上看診、星期四晚上看診、星期五晚上看診、星期六晚上休診、星期日晚上休診","-","","","臺北市","大安區","群賢里","",121.543754,25.025002
"5901024838","昶青藥局","02 -27515678","台北市大安區濟南路3段22之1號",0,1019,"2020/03/20 17:22:48","星期一上午看診、星期二上午看診、星期三上午看診、星期四上午看診、星期五上午看診、星期六上午看診、星期日上午看診、星期一下午看診、星期二下午看診、星期三下午看診、星期四下午看診、星期五下午看診、星期六下午看診、星期日下午看診、星期一晚上看診、星期二晚上看診、星期三晚上看診、星期四晚上看診、星期五晚上看診、星期六晚上看診、星期日晚上休診","-","週一至週日，每天下午一點發號碼牌及代售口罩。口罩地圖的庫存顯示很精準，多想一分鐘，您可以省下不必要的電話費及寶貴的時間。","","臺北市","大安區","民輝里","NNNNNNNNNNNNNNNNNNNNY",121.534581,25.040086
"5901024856","杏一台北國泰藥局","02 -27011785","台北市大安區仁愛路4段266巷15弄4號",0,3036,"2020/03/20 17:22:48","星期一上午看診、星期二上午看診、星期三上午看診、星期四上午看診、星期五上午看診、星期六上午看診、星期日上午看診、星期一下午看診、星期二下午看診、星期三下午看診、星期四下午看診、星期五下午看診、星期六下午看診、星期日下午看診、星期一晚上看診、星期二晚上看診、星期三晚上看診、星期四晚上看診、星期五晚上看診、星期六晚上看診、星期日晚上看診","口罩販售：一到日1430-1630 只販售2小時，，現場排隊現場買，無號碼牌","","","臺北市","大安區","敦煌里","NNNNNNNNNNNNNNNNNNNNN",121.553185,25.036554
"5901024865","沛林東區生活藥袺藹","02 -27763759","台北市大安區敦化南路1段187巷17號",0,2009,"2020/03/20 17:22:48","星期一上午看診、星期二上午看診、星期三上午看診、星期四上午看診、星期五上午看診、星期六上午休診、星期日上午休診、星期一下午看診、星期二下午看診、星期三下午看診、星期四下午看診、星期五下午看診、星期六下午看診、星期日下午看診、星期一晚上看診、星期二晚上看診、星期三晚上看診、星期四晚上看診、星期五晚上看診、星期六晚上看診、星期日晚上看診","口罩號碼牌發放時間15:00，領取時間18:00-20:00","","","臺北市","大安區","建安里","NNNNNYYNNNNNNNNNNNNNN",121.550149,25.042668
"5901024874","奇異果大安藥局","02 -23250891","台北市大安區大安路1段190號",0,572,"2020/03/20 17:22:48","星期一上午看診、星期二上午看診、星期三上午看診、星期四上午看診、星期五上午看診、星期六上午看診、星期日上午休診、星期一下午看診、星期二下午看診、星期三下午看診、星期四下午看診、星期五下午看診、星期六下午看診、星期日下午休診、星期一晚上看診、星期二晚上看診、星期三晚上看診、星期四晚上看診、星期五晚上看診、星期六晚上看診、星期日晚上休診","一至六。早上9.00發號碼牌100份，晚上19.00無號碼牌100份","","","臺北市","大安區","仁慈里","NNNNNNYNNNNNNYNNNNNNY",121.545888,25.035726
"5901024883","躍獅敦和藥局","02 -23785767","台北市大安區和平東路3段10號",0,307,"2020/03/20 17:22:48","星期一上午看診、星期二上午看診、星期三上午看診、星期四上午看診、星期五上午看診、星期六上午看診、星期日上午看診、星期一下午看診、星期二下午看診、星期三下午看診、星期四下午看診、星期五下午看診、星期六下午看診、星期日下午看診、星期一晚上看診、星期二晚上看診、星期三晚上看診、星期四晚上看診、星期五晚上看診、星期六晚上看診、星期日晚上看診","-","","","臺北市","大安區","虎嘯里","NNNNNNNNNNNNNNNNNNNNN",121.546993,25.024527
"5901024892","太醫藥局","02 -23685125","台北市大安區師大路12號",0,1673,"2020/03/20 17:22:48","星期一上午看診、星期二上午看診、星期三上午看診、星期四上午看診、星期五上午看診、星期六上午看診、星期日上午休診、星期一下午看診、星期二下午看診、星期三下午看診、星期四下午看診、星期五下午看診、星期六下午休診、星期日下午休診、星期一晚上看診、星期二晚上看診、星期三晚上看診、星期四晚上看診、星期五晚上看診、星期六晚上休診、星期日晚上休診","口罩發放時間:周一到周五:下午一點半，周六:早上10:30","","","臺北市","大安區","古莊里","NNNNNNYNNNNNYYNNNNNYY",121.52827,25.025681
